,faa_identifier,name,longitude,latitude,airport_type,service_city,country
0,X01,Everglades Arpk,-81.39028081,25.84886579,Aerodome,Everglades,United States
1,0C8,Cushing Fld Ltd,-88.60563489,41.51948274,Aerodome,Newark,United States
2,7L8,Post-Air,-86.01387619,39.75005034,Aerodome,Indianapolis,United States
3,71K,Westport,-97.38370248,37.64770102,Aerodome,Wichita,United States
4,2M7,Hoffman's Black Mountain Aerodrome,-84.30806069,45.53195309,Aerodome,Cheboygan,United States
5,95D,Beulah,-101.8150535,47.25122151,Aerodome,Beulah,United States
6,1I5,Freehold,-74.06502935,42.36400857,Aerodome,Freehold,United States
7,6S2,Florence Muni,-124.1113831,43.98282204,Aerodome,Florence,United States
8,E95,Benson Muni,-110.3579828,31.99944944,Aerodome,Benson,United States
9,0Y6,Lake Mills Muni,-93.51175762,43.41367441,Aerodome,Lake Mills,United States
10,8N2,Skydive Chicago,-88.79392271,41.39978548,Aerodome,Ottawa,United States
11,Z92,Harsens Island,-82.5756279,42.5894263,Aerodome,Harsens Island,United States
12,2M1,Harry S Truman Rgnl,-94.08650729,39.01964589,Aerodome,Bates City,United States
13,4K3,Lexington Muni,-93.92772949,39.20989593,Aerodome,Lexington,United States
14,0C1,Triple R,-94.78114642,39.48775704,Aerodome,Dearborn,United States
15,02T,Wise River,-112.980485,45.77003422,Aerodome,Wise River,United States
16,31D,Inter Co,-79.77921546,40.33341046,Aerodome,Irwin,United States
17,1A7,Jackson Co,-85.64133806,36.39681249,Aerodome,Gainesboro,United States
18,4C3,Yalesville,-72.81116778,41.49189734,Heliport,Yalesville,United States
19,L33,Tensas Parish,-91.23873936,31.97322525,Aerodome,St Joseph,United States
20,6Y3,North Fox Island,-85.78083475,45.48210577,Aerodome,North Fox Island,United States
21,E40,Wilson's,-81.35786731,35.65208362,Aerodome,Hickory,United States
22,8N0,Rockingham Co,-79.73986131,36.49365163,Heliport,Eden,United States
23,6L5,Wishek Muni,-99.53966801,46.24963686,Aerodome,Wishek,United States
24,N01,Mosquero Emergency Services,-103.9580373,35.78245035,Heliport,Mosquero,United States
25,N86,Spanish Springs,-119.7251797,39.67118587,Aerodome,Reno,United States
26,O14,Skyroads,-97.99820241,34.89039496,Aerodome,Ninnekah,United States
27,HL2,Hubbard Landing,-87.87000506,31.06361684,Seaport,Stockton,United States
28,O20,Kingdon Arpk,-121.3594061,38.09159144,Aerodome,Lodi,United States
29,5V4,Calhan,-104.2930099,39.04831193,Aerodome,Calhan,United States
30,01D,Lake Wawasee,-85.70611624,41.40361899,Seaport,Syracuse,United States
31,55G,Arnold Fld,-82.60786826,43.29780837,Aerodome,Croswell,United States
32,3S5,Schiffer Acres,-84.43387491,43.035871,Aerodome,St Johns,United States
33,2M5,Stockton Lake,-93.75854958,37.6500465,Seaport,Stockton,United States
34,C71,Crosby Muni,-91.05254344,31.29640706,Aerodome,Crosby,United States
35,53U,Ferndale Airfield,-114.0011801,48.06047876,Aerodome,Bigfork,United States
36,8B2,Twin Mountain,-71.54674956,44.26407309,Aerodome,Twin Mountain,United States
37,P15,Brokenstraw,-79.36067406,41.83294854,Aerodome,Pittsfield,United States
38,SS1,North Country,-91.79800752,46.36984163,Seaport,Solon Springs,United States
39,7B9,Ellington,-72.45711213,41.92542521,Aerodome,Ellington,United States
40,F13,Shell Creek Arpk,-81.91630877,26.96861606,Aerodome,Punta Gorda,United States
41,M61,Edward F Johnson,-87.78847437,46.34522717,Aerodome,Ishpeming,United States
42,39Z,Flying-A-Ranch,-86.12366793,43.10502676,Aerodome,Fruitport,United States
43,M49,Jolly Fisherman,-95.52892706,47.14302313,Seaport,Waubun,United States
44,N39,Meyers,-82.73996013,35.50371745,Heliport,Candler,United States
45,8W9,R & K Skyranch,-123.0914334,46.83268827,Aerodome,Rochester,United States
46,04A,Frank Sikes,-86.26245928,31.73639288,Aerodome,Luverne,United States
47,12A,Arkavalley,-92.33507348,35.177536,Aerodome,Greenbrier,United States
48,1G4,Grand Canyon West,-113.8169282,35.98611646,Aerodome,Peach Springs,United States
49,0C5,Canadian Lakes,-85.28400522,43.57701938,Aerodome,Mecosta,United States
50,6G8,Shamrock Fld,-84.24078587,42.09504918,Aerodome,Brooklyn,United States
51,5Y5,David's Landing,-82.53647652,42.79778606,Aerodome,St Clair,United States
52,1B5,Franconia,-71.75070421,44.19595935,Aerodome,Franconia,United States
53,7D8,Gates,-81.09954512,41.35117392,Aerodome,Garrettsville,United States
54,I64,Ortner,-82.37072439,41.29311385,Aerodome,Wakeman,United States
55,22I,Vinton Co,-82.44182565,39.32813265,Aerodome,Mc Arthur,United States
56,9W9,Clio Crop Care,-79.53808615,34.56142345,Aerodome,Clio,United States
57,33A,Fairview,-82.12375362,35.15734015,Aerodome,Landrum,United States
58,S19,Mc Cormick Co,-82.26693359,33.90810349,Aerodome,Mc Cormick,United States
59,7Q7,White River Muni,-100.7418151,43.56167142,Aerodome,White River,United States
60,3T6,Clark,-97.29703545,33.13361689,Aerodome,Justin,United States
61,T37,Goldthwaite Muni,-98.60836346,31.42907207,Aerodome,Goldthwaite,United States
62,24R,Dilley Arpk,-99.18909124,28.68550485,Aerodome,Dilley,United States
63,Z95,Cibecue,-110.4441774,34.00333861,Aerodome,Cibecue,United States
64,X25,Chalet Suzanne Air Strip,-81.60141982,27.95381075,Aerodome,Lake Wales,United States
65,X55,Mid Florida At Eustis,-81.63008652,28.84333874,Aerodome,Eustis,United States
66,2VA,Zangger Vintage Arpk,-96.40255425,43.44960338,Aerodome,Larchwood,United States
67,9I3,West Liberty,-83.25194718,37.91444067,Aerodome,West Liberty,United States
68,21M,Currier's,-69.61930585,45.47831484,Seaport,Greenville Junction,United States
69,6D1,Brooten Muni/John O Bohmer Fld,-95.10421807,45.49705655,Aerodome,Brooten,United States
70,2N2,Newfound Valley,-71.75146895,43.59202694,Aerodome,Bristol,United States
71,N15,Kingston,-117.0689469,39.20267072,Aerodome,Kingston,United States
72,R47,Ruhe's,-84.05189322,41.10311429,Aerodome,Leipsic,United States
73,UOS,Franklin Co,-85.89815194,35.20515251,Aerodome,Sewanee,United States
74,4R9,Jeremiah Denton,-88.12747731,30.26049721,Aerodome,Dauphin Island,United States
75,L25,Pearce Ferry,-114.0467338,36.09322756,Aerodome,Meadview,United States
76,01J,Hilliard Arpk,-81.9063464,30.6859725,Aerodome,Hilliard,United States
77,18K,Fowler,-100.1862032,37.38428415,Aerodome,Fowler,United States
78,3L7,Milwrick Flying M,-83.37969698,44.73835413,Aerodome,Lincoln,United States
79,MO7,St Louis Downtown,-90.18300618,38.62534047,Heliport,St Louis,United States
80,2H9,Rolette,-99.85317132,48.66687046,Aerodome,Rolette,United States
81,D59,Gowanda,-78.95059315,42.50395812,Aerodome,Gowanda,United States
82,C21,Commonwealth Health Center,145.7245506,15.20975909,Heliport,Garapan,Northern Mariana Is
83,42B,Goodspeed,-72.45564349,41.4456629,Aerodome,East Haddam,United States
84,2K8,Argonia Muni,-97.7587581,37.27537316,Aerodome,Argonia,United States
85,6Y8,Welke,-85.52035003,45.72117102,Aerodome,Beaver Island,United States
86,4N0,Newman's,-85.75001579,42.28893442,Aerodome,Kalamazoo,United States
87,91N,Turtle Lake Muni,-100.9166103,47.50961467,Aerodome,Turtle Lake,United States
88,1WF,Waco Fld,-84.19806012,40.01477159,Aerodome,Troy,United States
89,6X8,Vultures Row,-97.10306319,33.34000583,Aerodome,Sanger,United States
90,E67,Kearny,-110.9090663,33.04719956,Aerodome,Kearny,United States
91,8M9,Providence-Webster Co,-87.73597762,37.42411815,Aerodome,Providence,United States
92,75G,Rossettie,-84.03086581,42.19510532,Aerodome,Manchester,United States
93,27C,Mecosta Morton,-85.26149458,43.63005459,Aerodome,Mecosta,United States
94,M16,Steam Boat Bay Seaplane Base,-94.37100828,46.39786923,Seaport,East Gull Lake,United States
95,8B1,Hawthorne-Feather Arpk,-71.90536202,43.06128656,Aerodome,Hillsboro,United States
96,BQR,Buffalo-Lancaster Rgnl,-78.6119753,42.92206405,Aerodome,Lancaster,United States
97,T13,Dallas South Port,-96.68542415,32.47738902,Aerodome,Palmer,United States
98,99A,Smith's Intl,-91.95875636,34.40622848,Aerodome,Sherrill,United States
99,P48,Pleasant Valley,-112.2507264,33.80059627,Aerodome,Peoria,United States
100,N09,Northfield,-73.11566678,41.72371654,Heliport,Thomaston,United States
101,FA1,Tavares,-81.727781,28.80056095,Seaport,Tavares,United States
102,H49,Sackman Fld,-90.23606174,38.45231266,Aerodome,Columbia,United States
103,2C6,Tri-Co,-90.07442302,40.77400753,Aerodome,Yates City,United States
104,13D,Ponderosa,-83.68308797,42.62917486,Heliport,Highland,United States
105,9N2,Philadelphia,-75.29963264,39.85900971,Seaport,Essington,United States
106,49R,Real Co,-99.7609006,29.74550615,Aerodome,Leakey,United States
107,7A0,Greensboro Muni,-87.66208563,32.68153942,Aerodome,Greensboro,United States
108,S74,Lost Isle,-121.4566306,38.00409392,Seaport,Stockton,United States
109,49X,Chemehuevi Valley,-114.4319838,34.52889402,Aerodome,Chemehuevi Valley,United States
110,C44,Toutant,-72.054362,41.95570301,Aerodome,Putnam,United States
111,D02,Osage Muni,-92.79561851,43.29234111,Aerodome,Osage,United States
112,2T7,Van Camp's,-83.84865463,42.01924141,Heliport,Tecumseh,United States
113,68R,Hamp,-84.80084978,43.3994841,Aerodome,Elwell,United States
114,59M,Torchport,-85.35668735,45.05339601,Aerodome,Eastport,United States
115,08F,City of Coalgate,-96.23306138,34.53176498,Aerodome,Coalgate,United States
116,1N3,Albert,-78.24298198,40.97169564,Aerodome,Philipsburg,United States
117,9S1,Four Winds,-96.75470199,33.36828224,Aerodome,Celina,United States
118,BTV,Burlington Intl,-73.15327973,44.47196455,Aerodome,Burlington,United States
119,A51,Costin,-85.289089,29.75854913,Aerodome,Port St Joe,United States
120,1ME,Chesuncook Lake House,-69.40944471,46.0608844,Seaport,Chesuncook,United States
121,D03,Kulm Muni,-98.93884286,46.30677164,Aerodome,Kulm,United States
122,H43,Haverstraw,-73.96929591,41.21093335,Heliport,Haverstraw,United States
123,37K,Falconhead,-97.29636883,33.92597815,Aerodome,Burneyville,United States
124,54M,Wolf River,-89.58003214,35.0540301,Aerodome,Rossville,United States
125,50M,Puckett,-86.61500496,35.68945119,Gliderport,Eagleville,United States
126,73T,Desoto,-96.85523531,32.63166682,Heliport,Desoto,United States
127,VT8,Shelburne,-73.22639588,44.36031175,Aerodome,Shelburne,United States
128,0R6,Hampton Muni,-92.46028422,33.52261718,Aerodome,Hampton,United States
129,C64,Cayuse Creek Usfs,-115.0731945,46.66659048,Aerodome,Cayuse Creek,United States
130,38C,Cain Fld,-85.49247751,43.59848049,Aerodome,Stanwood,United States
131,22T,Tecumseh Mills,-83.87835817,42.03385672,Aerodome,Tecumseh,United States
132,0J9,Flying V,-97.35385696,40.86777099,Aerodome,Utica,United States
133,5D7,Dayton Transportation Cntr,-84.18839898,39.75756321,Heliport,Dayton,United States
134,5A9,Roosevelt Mem,-84.69644869,32.93850625,Aerodome,Warm Springs,United States
135,IA8,Dyersville Area,-91.17986573,42.49611303,Aerodome,Dyersville,United States
136,N21,Holly Ridge/Topsail Island,-77.53108165,34.49100711,Aerodome,Holly Ridge,United States
137,05D,New Town Muni,-102.4780969,47.96787709,Aerodome,New Town,United States
138,3L2,Sky Ranch,-115.6264286,35.79294965,Aerodome,Sandy Valley,United States
139,8G3,Giermek Exec,-78.40553072,42.06761945,Aerodome,Olean,United States
140,62D,Warren,-80.92736478,41.26703586,Aerodome,Warren,United States
141,92D,Lagrange,-82.11515375,41.20283913,Aerodome,Lagrange,United States
142,7G4,Blue Knob Valley,-78.45370283,40.39650525,Aerodome,Newry,United States
143,9G1,Pittsburgh Northeast,-79.82612222,40.60355429,Aerodome,Pittsburgh,United States
144,5H3,Clear Lake Muni,-96.68839976,44.77170222,Aerodome,Clear Lake,United States
145,T76,Rhome Meadows,-97.49614272,33.14929244,Aerodome,Rhome,United States
146,1H9,Nest of Eagles,-91.80289634,45.83561933,Aerodome,Spooner,United States
147,11Y,Flying Feathers,-88.19493949,44.06119152,Aerodome,Chilton,United States
148,5N2,Prentice,-90.27634182,45.53834064,Aerodome,Prentice,United States
149,C59,Lake Lawn,-88.60113528,42.63413404,Aerodome,Delavan,United States
150,5K0,Bressler Fld,-101.5564815,39.74414554,Aerodome,Bird City,United States
151,5W5,Triple W,-78.7002804,35.62039593,Aerodome,Raleigh,United States
152,1A1,Green Acres,-73.75047368,42.14945299,Aerodome,Livingston,United States
153,5.00E+09,Packer,-83.2193643,40.40798421,Aerodome,Radnor,United States
154,TX1,Aero Estates,-95.43248769,32.07918066,Seaport,Frankston,United States
155,0B7,Warren-Sugarbush,-72.82700129,44.11739783,Aerodome,Warren,United States
156,26A,Ashland/Lineville,-85.80896986,33.2842035,Aerodome,Ashland/Lineville,United States
157,I92,Reed Ranch,-115.7130687,44.89167278,Aerodome,Yellow Pine,United States
158,ME5,Banks,-68.42816649,44.16539798,Aerodome,Swans Island,United States
159,8NC,Adams,-79.2488194,34.57612346,Aerodome,Rowland,United States
160,2N6,Redwing,-74.69089051,40.02709143,Aerodome,Jobstown,United States
161,NM1,Black Rock,-108.7883605,35.08498052,Heliport,Zuni,United States
162,4F1,Westport,-96.34650765,36.22142306,Aerodome,Westport,United States
163,X05,Pilot Country,-82.49648815,28.33028804,Aerodome,Brooksville,United States
164,8K8,Cimarron Muni,-100.3481671,37.83287116,Aerodome,Cimarron,United States
165,83B,Presque Isle,-68.06063873,46.70598177,Seaport,Presque Isle,United States
166,5Y1,Albert J Lindberg,-84.417708,46.03543789,Aerodome,Hessel,United States
167,5B7,Rensselaer Co,-73.57997366,42.69164754,Aerodome,Troy,United States
168,X63,Dr Hermenegildo Ortiz Quinones,-65.80071568,18.13801949,Aerodome,Humacao,United States
169,C53,Lower Loon Creek,-114.8086728,44.80867738,Aerodome,Challis,United States
170,92G,Midlakes,-77.20291928,42.81423075,Aerodome,Gorham,United States
171,6J7,Branhams,-79.92761403,34.28153449,Aerodome,Darlington,United States
172,4P3,Flandreau Muni,-96.59473077,44.00436873,Aerodome,Flandreau,United States
173,T58,Ironhead,-97.23030156,33.33178832,Aerodome,Sanger,United States
174,T48,Phillips Flying Ranch,-96.21914905,32.868128,Aerodome,Rockwall,United States
175,1T7,Kestrel Arpk,-98.42606333,29.8117551,Aerodome,San Antonio,United States
176,9Z8,Levelock,-156.8599103,59.12708402,Aerodome,Levelock,United States
177,78I,Pam's Place,-86.68850706,39.5016547,Aerodome,Eminence,United States
178,24M,Wilderness Arpk,-85.7117142,43.24475458,Aerodome,Kent City,United States
179,4M4,Shady Lawn Fld,-84.38129795,43.12859297,Aerodome,Bannister,United States
180,N46,U S,-80.41914894,34.98434712,Heliport,Wingate,United States
181,7B4,Miller Farm Landing Strip,-82.58905518,39.8845158,Aerodome,Baltimore,United States
182,3W9,Middle Bass-East Point,-82.79655984,41.69445252,Aerodome,Middle Bass Island,United States
183,0P2,Shoestring Aviation Airfield,-76.64639528,39.79626215,Aerodome,Stewartstown,United States
184,08R,Richmond,-71.62063961,41.48950849,Aerodome,West Kingston,United States
185,WN2,Silver Lake,-91.92584078,45.58445262,Seaport,Cumberland,United States
186,M38,Hazel Green,-86.64711603,34.91600659,Aerodome,Hazel Green,United States
187,A20,Sun Valley,-114.5650394,35.00564407,Aerodome,Bullhead City,United States
188,6K2,Shelby Co,-92.05022348,39.81257392,Aerodome,Shelbyville,United States
189,80C,Lone Hickory,-80.69010324,36.06052151,Aerodome,Yadkinville,United States
190,N61,Hinshaw (Greenacres),-79.5275251,35.87375512,Aerodome,Liberty,United States
191,05N,South Oaks Aerodrome,-77.35577651,35.48219178,Aerodome,Winterville,United States
192,4N2,Middlesex Valley,-77.27205819,42.71395295,Aerodome,Middlesex,United States
193,89D,Kelleys Island Land Fld,-82.6850584,41.60319001,Aerodome,Kelleys Island,United States
194,I71,Morgan Co,-81.80319298,39.65424607,Aerodome,Mc Connelsville,United States
195,T67,Hicks Airfield,-97.41169352,32.93124241,Aerodome,Fort Worth,United States
196,2G6,Mc Laughlin,-77.34583563,37.32056301,Seaport,Chester,United States
197,W28,Sequim Valley,-123.1879346,48.09792777,Aerodome,Sequim,United States
198,2A4,Vor Lake Waterlane,-151.494167,66.88744542,Seaport,Bettles,United States
199,X61,Bob White Fld,-81.62911985,28.73527761,Aerodome,Zellwood,United States
200,0J8,Flying Ten,-82.50878125,29.61892224,Aerodome,Archer,United States
201,63B,Limington-Harmon,-70.67247277,43.76303673,Aerodome,Limington,United States
202,7N4,Honey Acres,-83.98605884,42.0778278,Aerodome,Clinton,United States
203,5N7,Hat Fld,-86.09462403,43.0971987,Aerodome,Nunica,United States
204,37S,Fort Peck,-106.4779007,48.00484061,Aerodome,Fort Peck,United States
205,L92,Alamo Landing Fld,-115.1955014,37.3634393,Aerodome,Alamo,United States
206,1Z1,Grand Canyon Bar Ten Airstrip,-113.2309004,36.25650541,Aerodome,Whitmore,United States
207,O06,Lake Oroville Landing Area,-121.4677591,39.56655794,Seaport,Oroville,United States
208,TF8,Tinley Park Helistop,-87.8058391,41.55917446,Heliport,Chicago/Tinley Park,United States
209,4MD,Pier 7,-76.57166884,39.2722301,Heliport,Baltimore,United States
210,13Y,Littlefork Muni/Hanover,-93.57943338,48.40828622,Aerodome,Littlefork,United States
211,M59,Richton-Perry Co,-88.93486786,31.31703769,Aerodome,Richton,United States
212,NC2,Taylorsville,-81.19667005,35.93084035,Aerodome,Taylorsville,United States
213,6CM,Chapman Mem Fld,-82.72997637,40.29545782,Aerodome,Centerburg,United States
214,4S4,Skyport,-123.0528996,45.58261987,Aerodome,Cornelius,United States
215,15A,Mark Reynolds/North Mobile Co,-87.99633842,30.90914458,Aerodome,Creola,United States
216,3M2,Double Springs/Winston Co,-87.32781909,34.14422738,Aerodome,Double Springs,United States
217,E79,Sierra Sky Park,-119.8694016,36.84017171,Aerodome,Fresno,United States
218,F57,Jack Browns,-81.76280876,28.05750522,Seaport,Winter Haven,United States
219,3G8,Gen-Arpk,-90.11006198,41.43978542,Aerodome,Geneseo,United States
220,01L,Bass Lake,-86.58167204,41.22889669,Seaport,Winona,United States
221,K75,Osborne Muni,-98.6800266,39.43329985,Aerodome,Osborne,United States
222,I96,Columbia-Adair Co,-85.34718913,37.0853468,Aerodome,Columbia,United States
223,M00,Augusta,-69.78171139,44.26757796,Seaport,Augusta,United States
224,52I,Gross,-84.01139375,43.84689728,Aerodome,Pinconning,United States
225,09N,Airhaven,-73.87616814,41.83264737,Aerodome,Staatsburg,United States
226,38I,Weller,-83.68937664,40.09117718,Aerodome,Urbana,United States
227,I54,Mad River Arpk,-83.82854556,40.02006688,Aerodome,Tremont City,United States
228,49C,Camp Lake,-88.15842625,42.53335988,Aerodome,Camp Lake,United States
229,11N,Candlelight Farms,-73.46208466,41.56917511,Aerodome,New Milford,United States
230,2J0,Wakulla Co,-84.3953957,29.98946116,Aerodome,Panacea,United States
231,66B,Gillespie Fld,-67.36596617,45.0296315,Aerodome,Meddybemps,United States
232,Z98,Ottawa Exec,-85.92793589,42.81715811,Aerodome,Zeeland,United States
233,N22,Sky Manor,-77.59219529,34.71683911,Aerodome,Jacksonville,United States
234,8A6,Wilgrove Air Park,-80.67007152,35.21376188,Aerodome,Charlotte,United States
235,O74,Elliotts Landing,-83.51167107,40.52473005,Aerodome,Mount Victory,United States
236,W52,Goheen,-122.5768706,45.82680188,Aerodome,Battle Ground,United States
237,55I,Slate Run,-81.31018416,38.77752009,Aerodome,Spencer,United States
238,0.00E+00,Corydon,-93.24034335,40.75623512,Aerodome,Corydon,United States
239,57B,Islesboro,-68.91058332,44.30248132,Aerodome,Islesboro,United States
240,08G,Salt Fork Lodge,-81.52623432,40.11091201,Heliport,Cambridge,United States
241,3G9,Butler Farm Show,-79.97478306,40.85257249,Aerodome,Butler,United States
242,22D,Bandel,-80.09614221,40.13064679,Aerodome,Eighty Four,United States
243,4G0,Pittsburgh-Monroeville,-79.77491992,40.45264687,Aerodome,Monroeville,United States
244,00W,Lower Granite State,-117.4416805,46.67275608,Aerodome,Colfax,United States
245,1S9,Chewelah Muni,-117.7434045,48.31408644,Aerodome,Chewelah,United States
246,A09,Eagle Arpk,-114.6166505,34.88817183,Aerodome,Bullhead City,United States
247,CLW,Clearwater Air Park,-82.75906043,27.97721906,Aerodome,Clearwater,United States
248,X39,Tampa North Aero Park,-82.37455894,28.22128302,Aerodome,Tampa,United States
249,01F,Hamilton Lake,-84.91722713,41.55223016,Seaport,Hamilton,United States
250,6Y9,Prickett-Grooms Fld,-88.70585384,46.5086613,Aerodome,Sidnaw,United States
251,5M3,Moultonboro,-71.38762695,43.76746595,Aerodome,Moultonboro,United States
252,2TX,Salado,-97.54051177,30.92074007,Aerodome,Salado,United States
253,54W,Albany,-89.4241897,42.717394,Aerodome,Albany,United States
254,04V,Saguache Muni,-106.174338,38.09940056,Aerodome,Saguache,United States
255,I80,Noblesville,-85.96453286,40.00350761,Aerodome,Noblesville,United States
256,48K,Ness City Muni,-99.90912764,38.47376351,Aerodome,Ness City,United States
257,98M,Greaton Airfield,-70.51885882,43.57572559,Aerodome,Saco,United States
258,K31,Sharon,-74.57764177,42.77841613,Aerodome,Sharon Springs,United States
259,T25,Aero Estates,-95.45250992,32.08175566,Aerodome,Frankston,United States
260,4J8,Treutlen Co,-82.56339249,32.38739509,Aerodome,Soperton,United States
261,4C2,Walker/Rowe Waterloo,-84.98163659,41.43116931,Aerodome,Waterloo,United States
262,K34,Gardner Muni,-94.9563964,38.80704302,Aerodome,Gardner,United States
263,11J,Gorilla,-84.57803267,42.42500811,Heliport,Onondaga,United States
264,6C2,Ohio Dusting Co Inc,-83.98210735,40.95277732,Aerodome,Pandora,United States
265,O12,Grand Lake St Marys,-84.49067969,40.54102722,Seaport,St Marys,United States
266,7D9,Germack,-80.90398342,41.7778404,Aerodome,Geneva,United States
267,9X1,North Houston,-95.3219959,30.15338028,Aerodome,Houston,United States
268,5R7,Roy E Ray,-88.21119957,30.45525558,Aerodome,Bayou La Batre,United States
269,X49,South Lakeland,-82.04397717,27.93336324,Aerodome,Lakeland,United States
270,D28,Tanglefoot,-116.8322364,48.53889516,Seaport,Cavanaugh Bay,United States
271,07S,Beaumont Hotel,-96.52769948,37.6593108,Aerodome,Beaumont,United States
272,M66,Alfred Schroeder Fld,-97.21388028,38.34157754,Aerodome,Hillsboro,United States
273,1M9,Lake Barkley State Park,-87.90752207,36.8178083,Aerodome,Cadiz,United States
274,5M6,Sugar Springs Arpk,-84.43698002,44.14037925,Aerodome,Gladwin,United States
275,4N4,Lidgerwood Muni,-97.16614373,46.08919119,Aerodome,Lidgerwood,United States
276,B18,Alton Bay,-71.23700072,43.47759221,Seaport,Alton Bay,United States
277,C54,Catron Co,-108.3098992,34.31572766,Heliport,Quemado,United States
278,S17,Twin Lakes,-81.86705985,33.64569789,Aerodome,Graniteville,United States
279,CO1,Lake Meredith,-103.6937707,38.19632017,Seaport,Ordway,United States
280,F95,Calhoun Co,-85.11380009,30.48721541,Aerodome,Blountstown,United States
281,01B,Tippecanoe,-85.76750515,41.33306341,Seaport,Warsaw,United States
282,45K,Minneapolis City Co,-97.72106382,39.09434013,Aerodome,Minneapolis,United States
283,1M8,Myricks,-71.02647277,41.83906413,Aerodome,Berkley,United States
284,W17,Raleigh East,-78.43701227,35.79772931,Aerodome,Knightdale,United States
285,40I,Red Stewart Airfield,-84.12188367,39.50534538,Aerodome,Waynesville,United States
286,TX6,Twisted Js,-96.39003522,33.09295026,Aerodome,Farmersville,United States
287,W23,Wild Rose Idlewild,-89.21790119,44.19776342,Aerodome,Wild Rose,United States
288,36S,Happy Camp,-123.3889584,41.79068461,Aerodome,Happy Camp,United States
289,2RR,River Ranch Resort,-81.2039197,27.7793385,Aerodome,River Ranch,United States
290,C97,Lowell,-87.50770009,41.23014664,Aerodome,Lowell,United States
291,1I6,Holiday Inn Lakeview,-85.75488267,38.28304063,Heliport,Clarksville,United States
292,05B,Van Buren,-67.93196816,47.15894157,Seaport,Van Buren,United States
293,D41,Stephen Muni,-96.86284822,48.45832041,Aerodome,Stephen,United States
294,D52,Geneseo,-77.84250615,42.79868211,Aerodome,Geneseo,United States
295,I73,Moraine Air Park,-84.23999622,39.68211736,Aerodome,Dayton,United States
296,0Q9,Sonoma Skypark,-122.4340966,38.25744943,Aerodome,Sonoma,United States
297,F15,Halifax River,-81.03233303,29.2418333,Seaport,Holly Hill,United States
298,Y76,Morningstar Fld,-93.64113105,41.65432274,Aerodome,Des Moines,United States
299,2.00E+02,Sharpe's Strip,-82.77592105,42.95161941,Aerodome,Emmett,United States
300,1H3,State Technical College of Missouri,-91.81722885,38.47161814,Aerodome,Linn,United States
301,66Y,Diamondhead,-89.38765961,30.36298497,Aerodome,Diamondhead,United States
302,B70,Tiber Dam,-111.109154,48.31387769,Aerodome,Tiber Dam,United States
303,N58,Tiger Fld,-119.2426694,39.55979942,Aerodome,Fernley,United States
304,N25,Blue Heron,-74.19957581,42.69730641,Aerodome,Gallupville,United States
305,N56,Great Valley,-78.64725359,42.20507225,Aerodome,Great Valley,United States
306,15G,Weltzien Skypark,-81.79847086,41.02839578,Aerodome,Wadsworth,United States
307,6T2,Seagate Helistop,-83.53132672,41.65422386,Heliport,Toledo,United States
308,97F,Crazy Horse Muni,-97.1083605,34.54648133,Aerodome,Davis,United States
309,03G,Thermal-G,-80.07072291,42.02062215,Gliderport,Erie,United States
310,1F7,Arpk East,-96.35203519,32.81295021,Aerodome,Dallas,United States
311,EFD,Ellington,-95.15875694,29.60733851,Aerodome,Houston,United States
312,P03,Cochise College,-109.6899632,31.37131882,Aerodome,Douglas,United States
313,A39,Ak-Chin Rgnl,-111.9189123,32.99055367,Aerodome,Maricopa,United States
314,9B8,Salmon River Airfield,-72.44230878,41.58955181,Aerodome,Marlborough,United States
315,MA6,Monponsett Pond,-70.84309633,42.0098325,Seaport,Halifax,United States
316,ME2,Cutler Rgnl,-67.26436056,44.68000921,Aerodome,Cutler,United States
317,B10,Bowman Fld,-70.14608374,44.41000908,Aerodome,Livermore Falls,United States
318,M71,Greensfield,-90.96031198,38.90178215,Aerodome,Moscow Mills,United States
319,N16,Centre Arpk,-77.65722206,40.81173925,Aerodome,Centre Hall,United States
320,S79,Green Sea,-79.02059014,34.18556227,Aerodome,Green Sea,United States
321,09T,Lazy G Bar Ranch,-97.49670107,33.28132649,Aerodome,Decatur,United States
322,6X0,Tarrant Fld,-95.29486821,32.09750567,Aerodome,Mount Selman,United States
323,29F,Joe Vaughn Spraying,-101.7599255,34.39283913,Aerodome,Kress,United States
324,62C,Cindy Guntly Mem,-88.09404209,42.81094687,Aerodome,Franksville,United States
325,LSK,Lusk Muni,-104.4045659,42.75381242,Aerodome,Lusk,United States
326,5A2,Warner Robins Air Park,-83.67675394,32.56064509,Aerodome,Warner Robins,United States
327,53W,Woodruff Lake,-84.97856068,43.55448051,Aerodome,Winn,United States
328,D24,Fessenden-Streibel Muni,-99.66096552,47.65973174,Aerodome,Fessenden,United States
329,6B4,Frankfort-Highland,-75.16954364,43.01611559,Aerodome,Utica/Frankfort,United States
330,T51,Dan Jones Intl,-95.66723015,30.04278052,Aerodome,Houston,United States
331,FL5,Orlando,-81.63916985,28.62111647,Seaport,Orlando,United States
332,C48,Wilson Bar Usfs,-115.4833465,45.39667284,Aerodome,Dixie,United States
333,K17,Montezuma Muni,-100.4701477,37.58567306,Aerodome,Montezuma,United States
334,60J,Odell Williamson Muni,-78.43667468,33.90851223,Aerodome,Ocean Isle Beach,United States
335,E85,Denio Junction,-118.6310196,41.9540681,Aerodome,Denio,United States
336,K30,Heber Arpk,-73.63317371,43.18341596,Aerodome,Gansevoort,United States
337,83K,Harris,-73.53265564,43.40977267,Aerodome,Fort Ann,United States
338,42I,Parr,-82.01236196,40.00701946,Aerodome,Zanesville,United States
339,FGU,Collegedale Muni,-85.02007113,35.04442752,Aerodome,Collegedale,United States
340,W04,Ocean Shores Muni,-124.1423975,46.99922536,Aerodome,Ocean Shores,United States
341,65J,Wrens Mem,-82.38450359,33.22278417,Aerodome,Wrens,United States
342,64I,Lee Bottom,-85.44342427,38.63144905,Aerodome,Hanover,United States
343,8M7,Tradewater,-87.67500536,37.18592366,Aerodome,Dawson Springs,United States
344,3S2,Swans Fld,-70.40680606,44.51414798,Aerodome,Dixfield,United States
345,0K6,Dobie's,-95.58028245,36.17935364,Aerodome,Inola,United States
346,T73,Kirk Air Base,-80.682294,34.67432371,Aerodome,Lancaster,United States
347,6F7,Manning Fld,-94.35453468,32.82700585,Aerodome,Jefferson,United States
348,A24,California Pines,-120.6838995,41.4122651,Aerodome,Alturas,United States
349,6Y2,Candlelight,-73.46067938,41.56788039,Heliport,New Milford,United States
350,1J6,Bob Lee Flight Strip,-81.31419755,29.10411659,Aerodome,Deland,United States
351,08B,Merrymeeting Fld,-69.88713919,44.00000902,Aerodome,Bowdoinham,United States
352,2.00E+08,Cackleberry,-83.86854634,42.42513315,Aerodome,Dexter,United States
353,HD6,Harsens Island,-82.57195429,42.59223602,Heliport,Harsens Island,United States
354,N92,Laneys,-81.11730445,35.57430722,Aerodome,Maiden,United States
355,49N,Lufker,-72.75093411,40.82482915,Aerodome,East Moriches,United States
356,6N6,Evers,-73.81624612,40.8459419,Seaport,New York,United States
357,5D6,Parsons,-81.06871089,40.64812463,Aerodome,Carrollton,United States
358,T80,Bishop's Landing,-96.72894366,33.37652669,Aerodome,Celina,United States
359,5C5,El Capitan Lodge,-133.2533914,55.9585933,Seaport,Craig,United States
360,1C9,Frazier Lake Arpk,-121.4626519,36.95283828,Aerodome,Hollister,United States
361,5ME,Brandy Pond,-70.58747275,43.95389787,Seaport,Naples,United States
362,E66,Maple Grove,-84.0619492,42.71709152,Heliport,Fowlerville,United States
363,25D,Forest Lake,-92.99286188,45.24741777,Aerodome,Forest Lake,United States
364,P45,Mount Pleasant/Scottdale,-79.54311554,40.10764134,Aerodome,Mount Pleasant,United States
365,T31,Aero Country,-96.74194865,33.20845582,Aerodome,Mc Kinney,United States
366,7A6,Stevenson,-85.80329356,34.88628301,Aerodome,Stevenson,United States
367,82A,Marion Co,-84.50369861,32.28281167,Aerodome,Buena Vista,United States
368,2Y1,Drake,-93.41516996,42.31752147,Aerodome,Radcliffe,United States
369,89Y,Maidens,-84.32211595,42.73386929,Aerodome,Williamston,United States
370,6H4,Van Wagnen,-84.33432423,42.15577197,Aerodome,Napoleon,United States
371,1B8,Chapin Fld,-73.36314028,43.05270317,Aerodome,Cambridge,United States
372,4B7,Schroon Lake,-73.74054879,43.86258836,Aerodome,Schroon Lake,United States
373,39P,Strom Fld,-122.2666405,46.5503664,Aerodome,Morton,United States
374,GA2,Alexander Mem,-84.37159445,33.18345937,Aerodome,Williamson,United States
375,1U2,Mud Lake/West Jefferson Co,-112.5013734,43.85095075,Aerodome,Mud Lake,United States
376,M06,Havre De Grace,-76.0696737,39.54151017,Seaport,Havre De Grace,United States
377,34U,Yuba,-85.43118679,44.83889958,Aerodome,Elk Rapids,United States
378,4C4,Gifford Fld,-71.5077254,44.88753273,Aerodome,Colebrook,United States
379,5G8,Greensburg Jeannette Rgnl,-79.60878097,40.37634131,Aerodome,Jeannette,United States
380,9N1,Vansant,-75.09961789,40.48427789,Aerodome,Erwinna,United States
381,F78,Horseshoe Bend,-97.87254167,32.57291787,Aerodome,Weatherford,United States
382,3A3,Seymour Lake Spb,-149.6655928,61.61346276,Seaport,Wasilla,United States
383,D74,Chorman,-75.61277963,38.84953561,Aerodome,Farmington,United States
384,01H,Lake Maxinkuckee,-86.40444977,41.20611891,Seaport,Culver,United States
385,II9,Wilbur Wright Birthplace,-85.2433382,39.9541743,Heliport,Hagerstown,United States
386,C43,Hiram Cure,-84.96496254,42.7700401,Aerodome,Sunfield,United States
387,43Y,Northome Muni,-94.2582839,47.88810402,Aerodome,Northome,United States
388,28A,Goose Creek,-80.5872926,35.12098631,Aerodome,Indian Trail,United States
389,X09,Covey Trails,-95.84048073,29.6900885,Aerodome,Fulshear,United States
390,T79,Skyway Manor,-95.32800004,29.5557946,Aerodome,Pearland,United States
391,39G,Avoca,-82.66937297,43.03003582,Aerodome,Avoca,United States
392,7MI,Flugplatz,-82.54828907,43.34175143,Aerodome,Lexington,United States
393,2GC,Grays Creek,-78.84353318,34.89369855,Aerodome,Fayetteville,United States
394,N02,Red River,-105.4189321,36.7098004,Heliport,Red River,United States
395,0.00E+00,Crownpoint,-108.2016065,35.71766454,Aerodome,Crownpoint,United States
396,2A7,Department of Transportation,-83.04407782,39.95979385,Heliport,Columbus,United States
397,2D6,Bannock,-80.97537693,40.10702203,Heliport,Bannock,United States
398,XA0,Prose Fld,-97.28003545,33.14817245,Aerodome,Justin,United States
399,3B8,Shady Acres,-122.3710981,47.07039447,Aerodome,Spanaway,United States
400,W09,Lower Monumental State,-118.5367098,46.54972818,Aerodome,Kahlotus,United States
401,W34,Shiocton,-88.56177409,44.45471406,Aerodome,Shiocton,United States
402,48X,Arpt Manatee,-82.51992008,27.64260232,Aerodome,Palmetto,United States
403,3G2,Grygla Muni - Mel Wilkens Fld,-95.62598117,48.2940916,Aerodome,Grygla,United States
404,D14,Fertile Muni,-96.29220345,47.55192479,Aerodome,Fertile,United States
405,N83,Ds Butler Farm and Airfield,-80.00531999,36.19514323,Aerodome,Oak Ridge,United States
406,8M6,Mc Ville Muni,-98.18492347,47.77032466,Aerodome,Mc Ville,United States
407,1H4,Greenville-Rainbow,-74.01624489,42.41675692,Aerodome,Greenville,United States
408,3D8,Bordner,-83.72319897,41.33600796,Aerodome,Bowling Green,United States
409,66R,Robert R Wells Jr,-96.51596285,29.64151625,Aerodome,Columbus,United States
410,07A,Franklin Fld,-85.80967953,32.16681993,Aerodome,Union Springs,United States
411,1V8,Leach,-106.0469268,37.78492274,Aerodome,Center,United States
412,X52,New Hibiscus Arpk,-80.52755727,27.63226014,Aerodome,Vero Beach,United States
413,55H,Atlanta,-115.1350945,43.8135169,Aerodome,Atlanta,United States
414,75C,Orogrande,-115.5277911,45.72945064,Aerodome,Orogrande,United States
415,4H1,Schaumburg Muni Helistop,-88.05257784,42.04809064,Heliport,Chicago/Schaumburg,United States
416,92B,Long Lake,-68.23142604,47.19310573,Seaport,Sinclair,United States
417,0N0,Roosterville,-94.44245186,39.28984036,Aerodome,Liberty,United States
418,2N5,Kampel,-76.97715235,40.04951774,Aerodome,Wellsville,United States
419,N74,Penns Cave,-77.60249871,40.89035038,Aerodome,Centre Hall,United States
420,E37,Flying J Ranch,-109.8817586,32.84784848,Aerodome,Pima,United States
421,DT1,Downtown Fort Lauderdale,-80.14205754,26.12046922,Heliport,Fort Lauderdale,United States
422,D11,Ojibwa Arpk,-85.00280959,43.72003526,Aerodome,Weidman,United States
423,Y30,Pbeaaye,-84.55698688,45.53113058,Aerodome,Topinabee,United States
424,39T,Tripp Creek,-84.48915659,43.06476101,Aerodome,St Johns,United States
425,78Y,Rankin,-94.83470207,40.33170162,Aerodome,Maryville,United States
426,H75,"Hernando Village Arpk, Inc",-90.03704169,34.79816087,Aerodome,Hernando,United States
427,7NC,Donald's Air Park Inc,-76.67126109,35.73169641,Aerodome,Plymouth,United States
428,Y99,Trulson Fld,-101.9532331,48.03057575,Aerodome,Plaza,United States
429,N59,Rosaschi Air Park,-119.3382273,38.83936221,Aerodome,Smith,United States
430,74P,Calvada Meadows,-115.9952713,36.27206449,Aerodome,Pahrump,United States
431,K11,Sam Riggs Arpk,-95.65189636,36.21817309,Aerodome,Claremore,United States
432,48P,Rocky Hill,-75.27527966,41.14856385,Ultralightport,Cresco,United States
433,7N8,Butter Valley Golf Port,-75.56319081,40.39744703,Aerodome,Bally,United States
434,5J5,Holly Hill,-80.39433634,33.30042314,Aerodome,Holly Hill,United States
435,53T,Cannon Fld,-98.54946972,29.21607831,Aerodome,Somerset,United States
436,E58,Bird Dog Airfield,-97.34610461,33.30575903,Aerodome,Krum,United States
437,9F9,Sycamore Strip,-97.3540146,32.62703346,Aerodome,Fort Worth,United States
438,HVE,Hanksville,-110.7029279,38.41942252,Aerodome,Hanksville,United States
439,RIU,Rancho Murieta,-121.1027909,38.48678288,Aerodome,Rancho Murieta,United States
440,X58,Indiantown,-80.44100279,27.037505,Aerodome,Indiantown,United States
441,F47,St George Island,-84.91560311,29.64458953,Aerodome,Apalachicola,United States
442,02D,Winona Lake,-85.83056071,41.22306339,Seaport,Winona Lake,United States
443,TKO,Mankato,-98.22117041,39.80279688,Aerodome,Mankato,United States
444,D22,Yacht Haven,-83.7525189,46.0248032,Seaport,Drummond Island,United States
445,BQ1,Gilliam - Mc Connell Airfield,-79.43694727,35.34167362,Aerodome,Carthage,United States
446,00A,Total Rf,-74.93361282,40.07084143,Heliport,Bensalem,United States
447,92A,Chilhowee,-84.58493712,35.22646896,Gliderport,Benton,United States
448,T29,Flying H Ranch,-96.94097845,33.63043228,Aerodome,Whitesboro,United States
449,2W1,De Vere Fld,-120.8526754,47.17758686,Aerodome,Cle Elum,United States
450,T44,Trident Basin,-152.3914098,57.78083481,Seaport,Kodiak,United States
451,2A8,Addison Muni,-87.15816335,34.21714809,Aerodome,Addison,United States
452,C55,Ogle Co,-89.39289156,42.03725861,Aerodome,Mount Morris,United States
453,C67,Lake Pleasant,-85.09194943,41.75700797,Seaport,Angola,United States
454,87K,El Dorado Springs Mem,-93.99764605,37.85714569,Aerodome,El Dorado Springs,United States
455,3T7,Middle Bass Island,-82.80818206,41.68840807,Aerodome,Middle Bass Island,United States
456,41N,Braceville,-80.9692609,41.21117557,Aerodome,Newton Falls,United States
457,O45,Hooker Muni,-101.2271006,36.85708928,Aerodome,Hooker,United States
458,H11,Sunbury,-76.73302455,40.91314986,Seaport,Sunbury,United States
459,CPX,Benjamin Rivera Noriega,-65.3038783,18.31295177,Aerodome,Isla De Culebra,United States
460,7T0,Freedom Fld,-97.21889657,33.59361698,Aerodome,Lindsay,United States
461,44A,Rolle Airfield,-114.6984003,32.51631042,Aerodome,San Luis,United States
462,0N4,Chandelle Estates,-75.48541849,39.20231346,Aerodome,Dover,United States
463,ME3,Bradford Camps,-69.00500015,46.3958428,Seaport,Ashland,United States
464,ME6,Wales,-70.0189448,44.17453682,Aerodome,Wales,United States
465,2H4,Triple H,-85.55584401,42.36540897,Aerodome,Parchment,United States
466,3F5,Forest Hill,-84.67500497,42.91073041,Aerodome,Westphalia,United States
467,8M8,Eagle Ii,-84.27619949,44.80653631,Aerodome,Lewiston,United States
468,C12,Cimarron,-104.9247181,36.51271429,Heliport,Cimarron,United States
469,85N,Hollands Intl Fld,-78.76781677,43.26673132,Aerodome,Newfane,United States
470,5D1,Stark Co Sheriff,-81.30833709,40.84017465,Heliport,Canton,United States
471,W16,First Air Fld,-121.9952588,47.87136928,Aerodome,Monroe,United States
472,6J8,Oak Tree Landing,-82.66521186,29.72026948,Aerodome,High Springs,United States
473,C11,Amana,-91.86477918,41.79359093,Aerodome,Amana,United States
474,LA3,Feliciana Arpk,-91.21333929,30.80778334,Aerodome,Jackson,United States
475,03M,Lakeside Marina,-69.88705587,44.31523129,Seaport,East Winthrop,United States
476,34G,Merillat,-83.92522382,41.97505307,Aerodome,Tecumseh,United States
477,H80,Fld of Dreams,-83.7626715,44.36470293,Aerodome,Hale,United States
478,D23,Arcade Tri-Co,-78.42613243,42.56673704,Aerodome,Arcade,United States
479,M31,Arnold Fld,-89.3973002,35.90341361,Aerodome,Halls,United States
480,T28,Cain,-97.43906606,33.35450026,Aerodome,Slidell,United States
481,73F,Wings For Christ Intl Flight Academy,-97.02250502,31.6237819,Aerodome,Waco,United States
482,IMM,Immokalee Rgnl,-81.40048122,26.43371699,Aerodome,Immokalee,United States
483,X04,Orlando Apopka,-81.58196767,28.70747979,Aerodome,Apopka,United States
484,AWG,Washington Muni,-91.67609019,41.27570196,Aerodome,Washington,United States
485,4D8,Fuller,-95.15905973,43.33319401,Aerodome,Milford,United States
486,HQG,Hugoton Muni,-101.3705368,37.1630896,Aerodome,Hugoton,United States
487,14A,Lake Norman Arpk,-80.89943384,35.61387641,Aerodome,Mooresville,United States
488,3G3,Wadsworth Muni,-81.75644396,41.00316522,Aerodome,Wadsworth,United States
489,PJC,Zelienople Muni,-80.16086451,40.80198025,Aerodome,Zelienople,United States
490,6J2,St George,-80.50847526,33.19550645,Aerodome,St George,United States
491,M01,General Dewitt Spain,-90.05397811,35.20070095,Aerodome,Memphis,United States
492,GZN,Gregory M Simmons Mem,-99.0237025,32.3658389,Aerodome,Cisco,United States
493,2J3,Louisville Muni,-82.38480914,32.98595078,Aerodome,Louisville,United States
494,MXO,Monticello Rgnl,-91.16330625,42.22037087,Aerodome,Monticello,United States
495,SFY,Tri-Township,-90.10795093,42.04584107,Aerodome,Savanna,United States
496,5L0,Lakota Muni,-98.32575967,48.02892468,Aerodome,Lakota,United States
497,4N1,Greenwood Lake,-74.34652936,41.12839721,Aerodome,West Milford,United States
498,CKI,Williamsburg Rgnl,-79.85697509,33.71722881,Aerodome,Kingstree,United States
499,E45,Pine Mountain Lake,-120.1785684,37.86167178,Aerodome,Groveland,United States
500,16J,Dawson Muni,-84.41930967,31.74328377,Aerodome,Dawson,United States
501,GCT,Guthrie Co Rgnl,-94.43506322,41.68697964,Aerodome,Guthrie Center,United States
502,SXK,Sioux Co Rgnl,-96.16140857,42.985835,Aerodome,Maurice,United States
503,47K,Moundridge Muni,-97.50273312,38.20909833,Aerodome,Moundridge,United States
504,0I8,Cynthiana-Harrison Co,-84.28334891,38.36617127,Aerodome,Cynthiana,United States
505,MVM,Machias Valley,-67.47861064,44.70312032,Aerodome,Machias,United States
506,GPH,Midwest National Air Center,-94.30964627,39.33250704,Aerodome,Mosby,United States
507,5A1,Norwalk-Huron Co,-82.55122639,41.244758,Aerodome,Norwalk,United States
508,7W4,Lake Anna,-77.74590524,37.96582701,Aerodome,Bumpass,United States
509,OTZ,Ralph Wien Mem,-162.5981661,66.88480459,Aerodome,Kotzebue,United States
510,HEG,Herlong Recreational,-81.80594774,30.27778352,Aerodome,Jacksonville,United States
511,MPZ,Mount Pleasant Muni,-91.51117344,40.94661858,Aerodome,Mount Pleasant,United States
512,6I2,Lebanon Springfield-George Hoerter Fld,-85.24184275,37.63348414,Aerodome,Springfield,United States
513,MHL,Marshall Mem Muni,-93.20281262,39.09550706,Aerodome,Marshall,United States
514,CNP,Billy G Ray Fld,-102.4640652,41.077479,Aerodome,Chappell,United States
515,I66,Clinton Fld,-83.86330998,39.50247984,Aerodome,Wilmington,United States
516,BBP,Marlboro Co Jetport - H E Avent Fld,-79.73436232,34.6217154,Aerodome,Bennettsville,United States
517,61A,Camden Muni,-87.33911606,31.97975595,Aerodome,Camden,United States
518,INF,Inverness,-82.31828117,28.80361649,Aerodome,Inverness,United States
519,0I2,Brazil Clay Co,-87.09971454,39.47674301,Aerodome,Brazil,United States
520,K38,Washington Co Veteran's Mem,-97.04759148,39.73517361,Aerodome,Washington,United States
521,BOS,General Edward Lawrence Logan Intl,-71.00638946,42.36295312,Aerodome,Boston,United States
522,8W2,New Market,-78.70849863,38.65599239,Aerodome,New Market,United States
523,TEX,Telluride Rgnl,-107.9087606,37.95381153,Aerodome,Telluride,United States
524,3GV,East Kansas City,-94.21486577,39.01464818,Aerodome,Grain Valley,United States
525,MPE,Philadelphia Muni,-89.12600269,32.79921808,Aerodome,Philadelphia,United States
526,PQL,Trent Lott Intl,-88.52923299,30.46278669,Aerodome,Pascagoula,United States
527,W40,Mount Olive Muni,-78.0386187,35.22146103,Aerodome,Mount Olive,United States
528,6N5,East 34th Street,-73.9720845,40.74260993,Heliport,New York,United States
529,ELZ,Wellsville Muni Arpt Tarantine Fld,-77.98997504,42.10953615,Aerodome,Wellsville,United States
530,2A1,Jamestown Muni,-84.94664341,36.3497014,Aerodome,Jamestown,United States
531,OKB,Bob Maxwell Mem Airfield,-117.3515195,33.2179812,Aerodome,Oceanside,United States
532,3J7,Greene Co Rgnl,-83.13825383,33.59797867,Aerodome,Greensboro,United States
533,AAO,Colonel James Jabara,-97.22111911,37.74758994,Aerodome,Wichita,United States
534,LCG,Wayne Muni/ Stan Morris Fld,-96.98227942,42.24161308,Aerodome,Wayne,United States
535,5R4,Foley Muni,-87.7009772,30.42767226,Aerodome,Foley,United States
536,43A,Montgomery Co,-79.79026502,35.3846614,Aerodome,Star,United States
537,AFP,Anson Co - Jeff Cloud Fld,-80.07712108,35.02064461,Aerodome,Wadesboro,United States
538,26N,Ocean City Muni,-74.60747794,39.26348711,Aerodome,Ocean City,United States
539,VAY,South Jersey Rgnl,-74.84575167,39.94289696,Aerodome,Mount Holly,United States
540,MRT,Union Co,-83.35164321,40.22450778,Aerodome,Marysville,United States
541,AFO,Afton Muni,-110.9421785,42.70878411,Aerodome,Afton,United States
542,DWX,Dixon,-107.4925386,41.03745085,Aerodome,Dixon,United States
543,40G,Valle,-112.1480654,35.65065124,Aerodome,Grand Canyon,United States
544,OPN,Thomaston-Upson Co,-84.26409032,32.95500882,Aerodome,Thomaston,United States
545,1C1,Paxton,-88.12774381,40.44898647,Aerodome,Paxton,United States
546,6A8,Allakaket,-152.6221944,66.55183413,Aerodome,Allakaket,United States
547,PEA,Pella Muni,-92.94586833,41.40122968,Aerodome,Pella,United States
548,OXI,Starke Co,-86.66481097,41.33020226,Aerodome,Knox,United States
549,99N,Bamberg Co,-81.10841989,33.30453423,Aerodome,Bamberg,United States
550,FYE,Fayette Co,-89.39445015,35.20770098,Aerodome,Somerville,United States
551,7M4,Osceola Muni,-90.01011702,35.69114549,Aerodome,Osceola,United States
552,GYR,Phoenix Goodyear,-112.3753722,33.42328288,Aerodome,Goodyear,United States
553,VYS,Illinois Valley Rgnl-Walter A Duncan Fld,-89.15295059,41.35014657,Aerodome,Peru,United States
554,81B,Oxford Co Rgnl,-70.48127829,44.15745347,Aerodome,Oxford,United States
555,JEF,Jefferson City Mem,-92.15615062,38.5911862,Aerodome,Jefferson City,United States
556,DXE,Dexter Muni,-89.94125597,36.77542348,Aerodome,Dexter,United States
557,4.00E+07,Ellendale Muni,-98.51570381,46.01634108,Aerodome,Ellendale,United States
558,I23,Fayette Co,-83.42052046,39.57041168,Aerodome,Washington Court House,United States
559,3T5,Fayette Rgnl Air Center,-96.95000741,29.90797739,Aerodome,La Grange,United States
560,8K2,Harper Muni,-98.0434865,37.27819287,Aerodome,Harper,United States
561,N89,Joseph Y Resnick,-74.37737746,41.72787955,Aerodome,Ellenville,United States
562,38D,Salem Arpk Inc,-80.86208696,40.94809136,Aerodome,Salem,United States
563,VQS,Antonio Rivera Rodriguez,-65.49361475,18.13481394,Aerodome,Isla De Vieques,United States
564,8T6,Live Oak Co,-98.11647986,28.36281038,Aerodome,George West,United States
565,OBE,Okeechobee Co,-80.8503918,27.26658838,Aerodome,Okeechobee,United States
566,K82,Smith Center Muni,-98.7945086,39.76261795,Aerodome,Smith Center,United States
567,LRG,Lincoln Rgnl,-68.53474687,45.36217013,Aerodome,Lincoln,United States
568,SGR,Sugar Land Rgnl,-95.65653485,29.62225516,Aerodome,Houston,United States
569,79D,Philippi/Barbour Co Rgnl,-80.06235186,39.166198,Aerodome,Philippi,United States
570,MDM,Marshall Don Hunter Sr,-162.0261339,61.86416629,Aerodome,Marshall,United States
571,18A,Franklin Co,-83.13080943,34.34036772,Aerodome,Canon,United States
572,CWF,Chennault Intl,-93.14320089,30.2105887,Aerodome,Lake Charles,United States
573,EYF,Curtis L Brown Jr Fld,-78.57927336,34.60181099,Aerodome,Elizabethtown,United States
574,M91,Springfield Robertson Co,-86.92117177,36.53670135,Aerodome,Springfield,United States
575,X50,Massey Ranch Arpk,-80.92478077,28.97892213,Aerodome,New Smyrna Beach,United States
576,IDP,Independence Muni,-95.77895783,37.15793289,Aerodome,Independence,United States
577,PCD,Perryville Rgnl,-89.86214492,37.86867369,Aerodome,Perryville,United States
578,TIF,Thomas Co,-100.5703149,41.96271537,Aerodome,Thedford,United States
579,FHB,Fernandina Beach Muni,-81.46119765,30.61183916,Aerodome,Fernandina Beach,United States
580,RJD,Ridgely Arpk,-75.86632638,38.97012118,Aerodome,Ridgely,United States
581,CPC,Columbus Co Muni,-78.71500256,34.27286786,Aerodome,Whiteville,United States
582,11A,Clayton Muni,-85.48522665,31.88333932,Aerodome,Clayton,United States
583,FHU,Sierra Vista Muni-Libby AAF,-110.3443994,31.58847716,Aerodome,Fort Huachuca Sierra Vista,United States
584,13K,Lt William M Milliken,-96.29203555,37.85161778,Aerodome,Eureka,United States
585,3K8,Comanche Co,-99.33203627,37.22286751,Aerodome,Coldwater,United States
586,EVU,Northwest Missouri Rgnl,-94.91664307,40.35329839,Aerodome,Maryville,United States
587,N63,Meadow Brook Fld,-80.14838226,36.30153325,Aerodome,Walnut Cove,United States
588,51D,Edgeley Muni,-98.73500948,46.34970221,Aerodome,Edgeley,United States
589,LAM,Los Alamos,-106.2686961,35.8796919,Aerodome,Los Alamos,United States
590,I10,Noble Co,-81.53632819,39.80097861,Aerodome,Caldwell,United States
591,M08,William L Whitehurst Fld,-89.04325561,35.21514544,Aerodome,Bolivar,United States
592,2M8,Charles W Baker,-89.93300267,35.27848624,Aerodome,Millington,United States
593,P19,Stellar Arpk,-111.9157985,33.29877594,Aerodome,Chandler,United States
594,03D,Memphis Mem,-92.22695137,40.44725735,Aerodome,Memphis,United States
595,ONX,Currituck Co Rgnl,-76.01544628,36.39995175,Aerodome,Currituck,United States
596,PBG,Plattsburgh Intl,-73.46814043,44.65095345,Aerodome,Plattsburgh,United States
597,3I7,Dayton-Phillipsburg,-84.40041712,39.91328545,Aerodome,Dayton,United States
598,0A9,Elizabethton Muni,-82.17342037,36.37122929,Aerodome,Elizabethton,United States
599,JGG,Williamsburg-Jamestown,-76.71609821,37.23918218,Aerodome,Williamsburg,United States
600,LZD,Danielson,-71.90097306,41.81975854,Aerodome,Danielson,United States
601,N57,New Garden,-75.76974668,39.83053441,Aerodome,Toughkenamon,United States
602,4X4,Wessington Springs,-98.53220352,44.06189637,Aerodome,Wessington Springs,United States
603,4B6,Ticonderoga Muni,-73.41314035,43.87728665,Aerodome,Ticonderoga,United States
604,2P7,Alderman,-80.96319153,40.05687094,Aerodome,St Clairsville,United States
605,AFW,Fort Worth Alliance,-97.31944823,32.99039159,Aerodome,Fort Worth,United States
606,SUZ,Saline Co Rgnl,-92.47945096,34.59039516,Aerodome,Benton,United States
607,AVO,Avon Park Exec,-81.52896995,27.591305,Aerodome,Avon Park,United States
608,24J,Suwannee Co,-83.02439254,30.3003946,Aerodome,Live Oak,United States
609,JXN,Jackson Co-Reynolds Fld,-84.46214345,42.26045115,Aerodome,Jackson,United States
610,M17,Bolivar Muni,-93.34770558,37.59611373,Aerodome,Bolivar,United States
611,9A4,Courtland,-87.34892177,34.65942318,Aerodome,Courtland,United States
612,RYY,Cobb Co Intl-McCollum Fld,-84.59703206,34.01317315,Aerodome,Atlanta,United States
613,LRJ,Le Mars Muni,-96.19370272,42.77795191,Aerodome,Le Mars,United States
614,3DW,Downtown,-93.24835552,37.22271228,Aerodome,Springfield,United States
615,DNA,Dona Ana Co Intl Jetport,-106.7032598,31.88044959,Aerodome,Santa Teresa,United States
616,BVS,Skagit Rgnl,-122.4217096,48.47053343,Aerodome,Burlington/Mount Vernon,United States
617,0H1,Trego Wakeeney,-99.89295325,39.00653443,Aerodome,Wakeeney,United States
618,B21,Sugarloaf Rgnl,-70.21642131,45.08544809,Aerodome,Carrabassett,United States
619,PPF,Tri-City,-95.50617419,37.33081218,Aerodome,Parsons,United States
620,18I,Mc Creary Co,-84.39150438,36.69539593,Aerodome,Pine Knot,United States
621,8V2,Stuart-Atkinson Muni,-99.03861708,42.56267324,Aerodome,Atkinson,United States
622,HWV,Brookhaven,-72.86691776,40.82195276,Aerodome,Shirley,United States
623,I43,James A Rhodes,-82.57785428,38.98136774,Aerodome,Jackson,United States
624,DYB,Summerville,-80.28091963,33.06228421,Aerodome,Summerville,United States
625,HWO,North Perry,-80.24072492,26.00122696,Aerodome,Hollywood,United States
626,DSM,Des Moines Intl,-93.66309077,41.53397966,Aerodome,Des Moines,United States
627,IXD,New Century Aircenter,-94.89031305,38.83092359,Aerodome,Olathe,United States
628,SYF,Cheyenne Co Muni,-101.7946752,39.75917331,Aerodome,St Francis,United States
629,ANJ,Sault Ste Marie Muni/Sanderson Fld,-84.36839415,46.47923101,Aerodome,Sault Ste Marie,United States
630,UYF,Madison Co,-83.46200434,39.93272994,Aerodome,London,United States
631,GCD,Grant Co Rgnl/Ogilvie Fld,-118.967897,44.4028732,Aerodome,John Day,United States
632,F53,Franklin Co,-95.23722937,33.21533922,Aerodome,Mount Vernon,United States
633,JKA,Jack Edwards National,-87.67178275,30.28964445,Aerodome,Gulf Shores,United States
634,4A5,Searcy Co,-92.65633998,35.89870096,Aerodome,Marshall,United States
635,MHP,Metter Muni,-82.08144791,32.37397844,Aerodome,Metter,United States
636,ICL,Schenck Fld,-95.02661883,40.72220167,Aerodome,Clarinda,United States
637,PEX,Paynesville Muni,-94.74473453,45.37207147,Aerodome,Paynesville,United States
638,MZH,Moose Lake Carlton Co,-92.8047856,46.41861934,Aerodome,Moose Lake,United States
639,T23,Albany Muni,-99.26759147,32.72139451,Aerodome,Albany,United States
640,HMP,Henry Co Arpt,-84.3310375,33.38991192,Aerodome,Hampton,United States
641,8A4,Indianapolis Downtown,-86.14888012,39.76588395,Heliport,Indianapolis,United States
642,UKL,Coffey Co,-95.72497989,38.302479,Aerodome,Burlington,United States
643,I95,Hardin Co,-83.64426372,40.61010033,Aerodome,Kenton,United States
644,I68,Warren Co/John Lane Fld,-84.25185167,39.46218065,Aerodome,Lebanon,United States
645,29D,Grove City,-80.16775342,41.14603587,Aerodome,Grove City,United States
646,3M7,Lafayette Muni,-86.05806041,36.52003472,Aerodome,Lafayette,United States
647,SLB,Storm Lake Muni,-95.24067355,42.59724239,Aerodome,Storm Lake,United States
648,EKX,Addington Fld,-85.92503267,37.68600717,Aerodome,Elizabethtown,United States
649,FFA,First Flight,-75.67158505,36.01759056,Aerodome,Kill Devil Hills,United States
650,9G6,Pine Hill,-78.27463549,43.17353938,Aerodome,Albion,United States
651,HZD,Carroll Co,-88.46330429,36.08930411,Aerodome,Huntingdon,United States
652,CHD,Chandler Muni,-111.8111221,33.26911622,Aerodome,Chandler,United States
653,D95,Dupont-Lapeer,-83.27156011,43.06648051,Aerodome,Lapeer,United States
654,AFK,Nebraska City Muni,-95.8666746,40.60653493,Aerodome,Nebraska City,United States
655,1G1,Elyria,-82.10025404,41.33153582,Aerodome,Elyria,United States
656,AGZ,Wagner Muni,-98.29639095,43.0641735,Aerodome,Wagner,United States
657,E16,San Martin,-121.5968186,37.08158828,Aerodome,San Martin,United States
658,COI,Merritt Island,-80.68547512,28.34161642,Aerodome,Merritt Island,United States
659,2J5,Millen,-81.96522568,32.89303411,Aerodome,Millen,United States
660,TWT,Sturgis Muni,-87.95436658,37.54178483,Aerodome,Sturgis,United States
661,EWB,New Bedford Rgnl,-70.95783652,41.67657455,Aerodome,New Bedford,United States
662,EOP,Pike Co,-82.92833745,39.16697982,Aerodome,Waverly,United States
663,EDJ,Bellefontaine Rgnl,-83.81925448,40.37228556,Aerodome,Bellefontaine,United States
664,AMT,Alexander Salamon,-83.56626551,38.8514824,Aerodome,West Union,United States
665,5J9,Twin City,-78.86491926,34.08842337,Aerodome,Loris,United States
666,RPD,Rice Lake Rgnl - Carl's Fld,-91.77334071,45.42011927,Aerodome,Rice Lake,United States
667,5M0,Hartselle-Morgan Co Rgnl,-86.93294941,34.4082287,Aerodome,Hartselle,United States
668,JZP,Pickens Co,-84.45722648,34.4534788,Aerodome,Jasper,United States
669,1C5,Bolingbrook's Clow Intl,-88.12950588,41.69592446,Aerodome,Bolingbrook,United States
670,5K2,Tribune Muni,-101.7500925,38.45147867,Aerodome,Tribune,United States
671,58M,Claremont,-75.86977975,39.57417463,Aerodome,Elkton,United States
672,UUV,Sullivan Rgnl,-91.1642842,38.23347924,Aerodome,Sullivan,United States
673,3N6,Old Bridge,-74.34678848,40.32989484,Aerodome,Old Bridge,United States
674,SIG,Fernando Luis Ribas Dominicci,-66.0984705,18.45678069,Aerodome,San Juan,United States
675,E41,Reagan Co,-101.4754102,31.19775414,Aerodome,Big Lake,United States
676,2R4,Peter Prince Fld,-86.99365757,30.6376265,Aerodome,Milton,United States
677,1J0,Tri-Co,-85.6013933,30.84578353,Aerodome,Bonifay,United States
678,75J,Turner Co,-83.63294833,31.68761712,Aerodome,Ashburn,United States
679,CWI,Clinton Muni,-90.32897875,41.83075769,Aerodome,Clinton,United States
680,UTA,Tunica Muni,-90.34778372,34.68506194,Aerodome,Tunica,United States
681,N14,Flying W,-74.80722388,39.93428585,Aerodome,Lumberton,United States
682,31E,Eagles Nest,-74.30804593,39.66546221,Aerodome,West Creek,United States
683,8G2,Corry-Lawrence,-79.64105888,41.90756382,Aerodome,Corry,United States
684,6A4,Johnson Co,-81.82514249,36.41784043,Aerodome,Mountain City,United States
685,TME,Houston Exec,-95.89789603,29.80503297,Aerodome,Houston,United States
686,RSL,Russell Muni,-98.81161224,38.87137028,Aerodome,Russell,United States
687,5M9,Marion-Crittenden Co,-88.1097305,37.33627923,Aerodome,Marion,United States
688,K24,Russell Co,-85.10275461,37.00970152,Aerodome,Jamestown,United States
689,RSN,Ruston Rgnl,-92.5884498,32.51460761,Aerodome,Ruston,United States
690,HFJ,Monett Rgnl,-94.01275709,36.90622885,Aerodome,Monett,United States
691,FAM,Farmington Rgnl,-90.42861729,37.76103475,Aerodome,Farmington,United States
692,4I9,Morrow Co,-82.85005975,40.52453563,Aerodome,Mount Gilead,United States
693,6J4,Saluda Co,-81.79463123,33.92679962,Aerodome,Saluda,United States
694,OFP,Hanover Co Muni,-77.43664124,37.70895197,Aerodome,Richmond/Ashland,United States
695,LUA,Luray Caverns,-78.50083776,38.66671816,Aerodome,Luray,United States
696,USW,Boggs Fld,-81.34883695,38.82381315,Aerodome,Spencer,United States
697,GEV,Ashe Co,-81.41850348,36.43247934,Aerodome,Jefferson,United States
698,08N,Keller Brothers,-76.32874938,40.29155948,Aerodome,Lebanon,United States
699,EQA,El Dorado/Captain Jack Thomas Mem,-96.81773012,37.77411774,Aerodome,El Dorado,United States
700,TZV,Tompkinsville-Monroe Co,-85.65239364,36.72903478,Aerodome,Tompkinsville,United States
701,I93,Breckinridge Co,-86.44128283,37.78481273,Aerodome,Hardinsburg,United States
702,4O4,Mc Curtain Co Rgnl,-94.85936821,33.90936715,Aerodome,Idabel,United States
703,1K8,South Grand Lake Rgnl,-95.01353511,36.54636763,Aerodome,Ketchum,United States
704,4V8,Deerfield Valley Rgnl,-72.86565483,42.92714428,Aerodome,West Dover,United States
705,DAF,Necedah,-90.08511782,44.03345251,Aerodome,Necedah,United States
706,GEU,Glendale Muni,-112.29515,33.52692178,Aerodome,Glendale,United States
707,4J2,Berrien Co,-83.2252603,31.2125505,Aerodome,Nashville,United States
708,BXG,Burke Co,-82.00278125,33.04128414,Aerodome,Waynesboro,United States
709,M20,Leitchfield-Grayson Co,-86.26128275,37.3997571,Aerodome,Leitchfield,United States
710,N23,Sidney Muni,-75.41597423,42.30259184,Aerodome,Sidney,United States
711,X51,Miami Homestead General Aviation,-80.55424728,25.49923525,Aerodome,Homestead,United States
712,54J,Defuniak Springs,-86.15378234,30.73111682,Aerodome,Defuniak Springs,United States
713,MEJ,Meade Muni,-100.3564644,37.2786814,Aerodome,Meade,United States
714,7G0,Ledgedale Arpk,-77.91550287,43.18120301,Aerodome,Brockport,United States
715,22N,Jake Arner Mem,-75.7614984,40.8095171,Aerodome,Lehighton,United States
716,LWT,Lewistown Muni,-109.4667067,47.0492569,Aerodome,Lewistown,United States
717,3A2,New Tazewell Muni,-83.55718967,36.40890344,Aerodome,Tazewell,United States
718,PBX,Pike Co-Hatcher Fld,-82.56643587,37.56181874,Aerodome,Pikeville,United States
719,HHW,Stan Stamper Muni,-95.54206284,34.03364492,Aerodome,Hugo,United States
720,ORC,Orange City Muni,-96.06250826,42.9888964,Aerodome,Orange City,United States
721,EWK,Newton-City-Co,-97.27523582,38.05708518,Aerodome,Newton,United States
722,04W,Fld of Dreams,-92.89518221,46.02287628,Aerodome,Hinckley,United States
723,5A6,Winona-Montgomery Co,-89.73022319,33.46499395,Aerodome,Winona,United States
724,5G0,Le Roy,-77.93525286,42.98128631,Aerodome,Le Roy,United States
725,DLZ,Delaware Muni - Jim Moore Fld,-83.11338787,40.27954994,Aerodome,Delaware,United States
726,6J0,Lexington Co,-81.2458644,33.79464545,Aerodome,Pelion,United States
727,A08,Vaiden Fld,-87.38478277,32.51050606,Aerodome,Marion,United States
728,VDF,Tampa Exec,-82.34528115,28.01397741,Aerodome,Tampa,United States
729,2IS,Airglades,-81.05105851,26.73517158,Aerodome,Clewiston,United States
730,W29,Bay Bridge,-76.32997119,38.97646327,Aerodome,Stevensville,United States
731,VER,Jesse Viertel Mem,-92.68267357,38.94672929,Aerodome,Boonville,United States
732,5B9,Dean Mem,-72.00776093,44.08018179,Aerodome,Haverhill,United States
733,2O8,Hinton Muni,-98.34256366,35.50722838,Aerodome,Hinton,United States
734,6P7,McVille,-79.59564905,40.73457054,Aerodome,Freeport,United States
735,LRO,Mt Pleasant Rgnl-Faison Fld,-79.78286392,32.89783974,Aerodome,Mount Pleasant,United States
736,HLC,Hill City Muni,-99.83148105,39.38020115,Aerodome,Hill City,United States
737,OZS,Camdenton Mem-Lake Rgnl,-92.69120127,37.97397911,Aerodome,Camdenton,United States
738,MJD,Picayune Muni,-89.65119997,30.48747777,Aerodome,Picayune,United States
739,8A7,Twin Lakes,-80.45680955,35.91492204,Aerodome,Mocksville,United States
740,N66,Oneonta Muni,-75.06447413,42.52478634,Aerodome,Oneonta,United States
741,56D,Wyandot Co,-83.31453592,40.88337648,Aerodome,Upper Sandusky,United States
742,N35,Punxsutawney Muni,-78.92999525,40.96666839,Aerodome,Punxsutawney,United States
743,XNA,Northwest Arkansas Rgnl,-94.30777268,36.28158567,Aerodome,Fayetteville/Springdale/Rogers,United States
744,EIK,Erie Muni,-105.0480935,40.01025645,Aerodome,Erie,United States
745,EKQ,Wayne Co,-84.85614341,36.85528484,Aerodome,Monticello,United States
746,8M1,Booneville/Baldwyn,-88.64850546,34.59186755,Aerodome,Booneville/Baldwyn,United States
747,7N7,Spitfire Aerodrome,-75.39772294,39.73557135,Aerodome,Pedricktown,United States
748,9D4,Deck,-76.32964661,40.35213588,Aerodome,Myerstown,United States
749,4G1,Greenville Muni,-80.39120027,41.44677458,Aerodome,Greenville,United States
750,5C1,Boerne Stage Fld,-98.69456475,29.7232241,Aerodome,San Antonio,United States
751,3Y3,Winterset Muni,-94.02120196,41.36281295,Aerodome,Winterset,United States
752,RMN,Stafford Rgnl,-77.45547462,38.39811878,Aerodome,Stafford,United States
753,C02,Grand Geneva Resort,-88.38958938,42.6149246,Aerodome,Lake Geneva,United States
754,JKJ,Moorhead Muni,-96.66403677,46.83928578,Aerodome,Moorhead,United States
755,4D9,Alma Muni,-99.34642545,40.11247908,Aerodome,Alma,United States
756,FCI,Richmond Exec-Chesterfield Co,-77.52483569,37.40645191,Aerodome,Richmond,United States
757,3I2,Mason Co,-82.09858718,38.91464647,Aerodome,Point Pleasant,United States
758,HLA,Huslia,-156.3514155,65.69786133,Aerodome,Huslia,United States
759,L71,California City Muni,-118.0166789,35.15125499,Aerodome,California City,United States
760,AEX,Alexandria Intl,-92.54856245,31.32737729,Aerodome,Alexandria,United States
761,LQK,Pickens Co,-82.70289266,34.80997895,Aerodome,Pickens,United States
762,50F,Bourland Fld,-97.59078549,32.581839,Aerodome,Fort Worth,United States
763,PYP,Centre-Piedmont-Cherokee Co Rgnl,-85.61008791,34.08992313,Aerodome,Centre,United States
764,CGC,Crystal River-Captain Tom Davis Fld,-82.57411458,28.8676165,Aerodome,Crystal River,United States
765,27K,Georgetown-Scott Co Rgnl,-84.43469894,38.23445179,Aerodome,Georgetown,United States
766,TVR,Vicksburg Tallulah Rgnl,-91.02769471,32.351617,Aerodome,Tallulah,United States
767,G05,Finleyville Arpk,-80.0098172,40.24545793,Aerodome,Finleyville,United States
768,M22,Bill Pugh Fld,-87.71164408,34.44508978,Aerodome,Russellville,United States
769,RME,Griffiss Intl,-75.40702985,43.23381424,Aerodome,Rome,United States
770,Z84,Clear,-149.1165533,64.30039046,Aerodome,Clear,United States
771,Z13,Akiachak,-161.4933513,60.91380952,Aerodome,Akiachak,United States
772,84K,Meyers Chuck,-132.2550373,55.73964067,Seaport,Meyers Chuck,United States
773,E25,Wickenburg Muni,-112.795101,33.97063448,Aerodome,Wickenburg,United States
774,M45,Alpine Co,-119.7670685,38.73475522,Aerodome,Markleeville,United States
775,H37,Herlong,-120.1799854,40.13872754,Aerodome,Herlong,United States
776,99D,Dewart Lake,-85.77278293,41.37195231,Seaport,Syracuse,United States
777,8I3,Glenndale,-86.20333242,40.43337851,Aerodome,Kokomo,United States
778,5F5,Bluebird Hill,-93.79990395,32.34460578,Aerodome,Keithville,United States
779,06Y,Herman Muni,-96.16062314,45.82996846,Aerodome,Herman,United States
780,8Y4,Surfside,-93.11689662,45.14997414,Seaport,Lino Lakes,United States
781,00M,Thigpen Fld,-89.23533881,31.95375587,Aerodome,Bay Springs,United States
782,S69,Lincoln,-112.6502296,46.95470936,Aerodome,Lincoln,United States
783,Y74,Parshall-Hankins,-102.1421496,47.935691,Aerodome,Parshall,United States
784,D31,Leeds Muni,-99.40347862,48.28500684,Aerodome,Leeds,United States
785,SXU,Santa Rosa Route 66,-104.6425733,34.93567781,Aerodome,Santa Rosa,United States
786,06U,Jackpot/Hayden Fld,-114.6580282,41.97583527,Aerodome,Jackpot,United States
787,76T,Bishop,-97.45186883,33.26917247,Aerodome,Decatur,United States
788,Z08,Ofu,-169.6700413,-14.18434328,Aerodome,Ofu Village,American Samoa
789,PWR,Port Walter,-134.6509506,56.38102142,Seaport,Port Walter,United States
790,WSB,Steamboat Bay,-133.6417163,55.52964297,Seaport,Steamboat Bay,United States
791,AK5,Encelewski Lake,-151.3030779,60.25555703,Seaport,Kasilof,United States
792,4Z7,Hyder,-130.0067218,55.9033246,Seaport,Hyder,United States
793,TSG,Tanacross,-143.3290144,63.37406641,Aerodome,Tanacross,United States
794,A29,Sitka,-135.3462285,57.05214187,Seaport,Sitka,United States
795,TLT,Tuluksak,-160.9233751,61.08772765,Aerodome,Tuluksak,United States
796,2D3,Gooding Lake,-149.2390928,61.62772116,Seaport,Palmer,United States
797,1Q1,Eckert Fld,-119.0506514,36.16239392,Aerodome,Strathmore,United States
798,27P,Eldora,-93.11432126,42.32996038,Aerodome,Eldora,United States
799,0C2,Hinckley,-88.7034205,41.77087055,Aerodome,Hinckley,United States
800,9KS,Greensburg Muni,-99.22838628,37.62270647,Aerodome,Greensburg,United States
801,43K,Marion Muni,-96.988258,38.33761783,Aerodome,Marion,United States
802,BGR,Bangor Intl,-68.82813888,44.80745364,Aerodome,Bangor,United States
803,K43,Unionville Muni,-93.02553493,40.54022954,Aerodome,Unionville,United States
804,63M,Hermann Muni,-91.49056072,38.70517514,Aerodome,Hermann,United States
805,5U0,Denton,-109.9419291,47.32086799,Aerodome,Denton,United States
806,S34,Plains,-114.9070969,47.47356195,Aerodome,Plains,United States
807,1C3,Argyle,-73.47019588,43.25453654,Aerodome,Argyle,United States
808,90F,Broken Bow,-94.75834041,34.01317273,Aerodome,Broken Bow,United States
809,5S0,Oakridge State,-122.5045419,43.75256093,Aerodome,Oakridge,United States
810,T87,Flying C,-97.27000768,33.34222804,Aerodome,Sanger,United States
811,94R,Lackey Aviation,-96.00725298,29.26440091,Aerodome,Wharton,United States
812,2F1,Shamrock Muni,-100.1853141,35.23461713,Aerodome,Shamrock,United States
813,APY,Zapata Co,-99.2489162,26.96879062,Aerodome,Zapata,United States
814,40U,Manila,-109.6785391,40.98639512,Aerodome,Manila,United States
815,83Q,Port of Poulsbo Marina Moorage,-122.6420983,47.72097781,Seaport,Poulsbo,United States
816,58C,Jana,-89.07567433,42.87279016,Aerodome,Edgerton,United States
817,3N0,Namorik,168.1249889,5.631674218,Aerodome,Namorik Atoll,Marshall Islands
818,KXA,Kasaan,-132.3975333,55.53741842,Seaport,Kasaan,United States
819,AK62,Naukati Bay,-133.2278466,55.84964719,Seaport,Tuxekan Island,United States
820,2OK,Alaska Rgnl Hospital,-149.8266064,61.21270443,Heliport,Anchorage,United States
821,M27,Waldron Muni,-94.10889585,34.87600625,Aerodome,Waldron,United States
822,0N5,Deldot Helistop,-75.50492489,39.14956456,Heliport,Dover,United States
823,1I3,Shawnee Fld,-87.00275531,39.0427296,Aerodome,Bloomfield,United States
824,L47,Olla,-92.21788962,31.89610297,Aerodome,Olla,United States
825,49G,Wend Valley,-84.9090175,42.57795812,Aerodome,Charlotte,United States
826,97G,Glowacki,-84.59582523,43.00004016,Aerodome,St Johns,United States
827,33M,Water Valley Muni,-89.68489461,34.16786742,Aerodome,Water Valley,United States
828,CW0,Cow Creek,-109.0080679,47.94750703,Aerodome,Winifred,United States
829,S28,Intl Peace Garden,-100.0437048,48.99731353,Aerodome,Dunseith,United States
830,4O5,Cherokee Muni,-98.35843876,36.78831471,Aerodome,Cherokee,United States
831,F30,Sulphur Muni,-96.99019519,34.5270505,Aerodome,Sulphur,United States
832,OR8,Dug Bar,-116.6887024,45.80583942,Aerodome,Imnaha,United States
833,5S5,Lake Billy Chinook State,-121.3206143,44.51929026,Aerodome,Culver,United States
834,M50,Boardman,-119.8205146,45.81483078,Aerodome,Boardman,United States
835,1DS,Dry Swamp,-80.91111428,33.38778426,Aerodome,Orangeburg,United States
836,1T8,Bulverde Arpk,-98.45113583,29.7391162,Aerodome,San Antonio,United States
837,82V,Pine Bluffs Muni,-104.1347601,41.15247889,Aerodome,Pine Bluffs,United States
838,HYG,Hydaburg,-132.8283319,55.20632059,Seaport,Hydaburg,United States
839,LHD,Lake Hood,-149.9654167,61.18664082,Aerodome,Anchorage,United States
840,GGV,Kwigillingok,-163.1680588,59.87558437,Aerodome,Kwigillingok,United States
841,85U,Soldier Bar Usfs,-114.8009419,45.09992038,Aerodome,Soldier Bar,United States
842,S90,Elk City,-115.439863,45.82269205,Aerodome,Elk City,United States
843,S83,Shoshone Co,-116.1890777,47.54726738,Aerodome,Kellogg,United States
844,50G,Howard Nixon Mem,-84.13245033,43.18103099,Aerodome,Chesaning,United States
845,29M,Waite Fld,-83.93204668,42.89073045,Aerodome,Durand,United States
846,MS9,Eagles Ridge,-89.91322805,34.79643698,Aerodome,Hernando,United States
847,23M,Clarke Co,-88.73903054,32.08596042,Aerodome,Quitman,United States
848,U05,Riddick Fld,-113.3050771,46.31937619,Aerodome,Philipsburg,United States
849,D29,Drayton Muni,-97.17590668,48.61852207,Aerodome,Drayton,United States
850,LWL,Wells Muni/Harriet Fld,-114.9221513,41.11711694,Aerodome,Wells,United States
851,3X5,North Bass Island,-82.8211154,41.71800808,Aerodome,North Bass Island,United States
852,K77,Freedom Muni,-99.1020195,36.75850078,Aerodome,Freedom,United States
853,H76,Pawhuska Muni,-96.40557687,36.67173258,Aerodome,Pawhuska,United States
854,H04,Vinita Muni,-95.15170215,36.6146228,Aerodome,Vinita,United States
855,P96,Jersey Shore,-77.22576778,41.20645129,Aerodome,Jersey Shore,United States
856,F01,Quanah Muni,-99.75969414,34.27709896,Aerodome,Quanah,United States
857,4I0,Mingo Co,-82.26097687,37.68760872,Aerodome,Williamson,United States
858,49U,Shoshoni Muni,-108.1220669,43.25097885,Aerodome,Shoshoni,United States
859,DUY,Kongiganak,-162.8806153,59.96163051,Aerodome,Kongiganak,United States
860,BNF,Baranof Warm Springs Float and Seaplane Float,-134.8331613,57.08883,Seaport,Baranof,United States
861,SKW,Skwentna,-151.1954138,61.96611387,Aerodome,Skwentna,United States
862,SAS,Salton Sea,-115.9525951,33.24119933,Aerodome,Salton City,United States
863,HLB,Batesville,-85.25842149,39.34311863,Aerodome,Batesville,United States
864,48G,Gavagan Fld,-82.89022666,43.10345276,Aerodome,Yale,United States
865,35C,Wells,-85.50531246,43.12836957,Aerodome,Rockford,United States
866,9Y5,Sky Harbor,-92.47658067,47.45965784,Seaport,Eveleth,United States
867,HWQ,Wheatland Co At Harlowton,-109.85279,46.44861792,Aerodome,Harlowton,United States
868,A34,Dayton Valley Arpk,-119.5554574,39.23842195,Aerodome,Dayton/Carson City,United States
869,TMT,Austin,-117.1974665,39.46794882,Aerodome,Austin,United States
870,O64,Port of Catoosa,-95.73967971,36.23083698,Heliport,Catoosa,United States
871,R33,Wakonda Beach State,-124.0851339,44.38456915,Aerodome,Waldport,United States
872,D65,Corsica Muni,-98.39758867,43.43444129,Aerodome,Corsica,United States
873,6.00E+05,Wilder,-97.55817853,44.43306164,Aerodome,Desmet,United States
874,3V0,Custer State Park,-103.3499894,43.72492373,Aerodome,Fairburn,United States
875,10F,Rosser Ranch,-98.62609133,33.01511681,Aerodome,Graham,United States
876,58F,Lane Fld,-97.14639654,33.36606139,Aerodome,Sanger,United States
877,6R5,Alvin Arpk,-95.28892363,29.41475513,Aerodome,Alvin,United States
878,5T0,Ward Arpk,-95.93597936,29.50272735,Aerodome,Beasley,United States
879,E52,Oldham Co,-102.3987771,35.23071979,Aerodome,Vega,United States
880,T88,Colorado City,-100.9211307,32.46843383,Aerodome,Colorado City,United States
881,22F,Kent Co,-100.5691196,33.22911676,Aerodome,Jayton,United States
882,81R,San Saba Co Muni,-98.71771,31.23575578,Aerodome,San Saba,United States
883,SJT,San Angelo Rgnl/Mathis Fld,-100.4963139,31.35775532,Aerodome,San Angelo,United States
884,N18,Tinak,171.916655,7.133340233,Aerodome,Arno Atoll,Marshall Islands
885,4AK,Livengood Camp,-148.6537739,65.46727102,Aerodome,Livengood,United States
886,5NK,Naknek,-157.0252316,58.73466355,Aerodome,Naknek,United States
887,A23,Saginaw,-134.1584075,56.88633649,Seaport,Saginaw Bay,United States
888,6R7,Old Harbor,-153.2698525,57.21830694,Aerodome,Old Harbor,United States
889,16K,Port Alice,-133.5942428,55.78490964,Seaport,Port Alice,United States
890,CXC,Chitina,-144.429826,61.58320529,Aerodome,Chitina,United States
891,5M1,De Witt Muni Arpt Whitcomb Fld,-91.30750617,34.26228404,Aerodome,De Witt,United States
892,E63,Gila Bend Muni,-112.6736486,32.96017446,Aerodome,Gila Bend,United States
893,FLY,Meadow Lake,-104.5699033,38.94575523,Aerodome,Colorado Springs,United States
894,8Y8,Peltz Fld,-94.56251761,43.26597987,Aerodome,Ringsted,United States
895,A05,Dixie Usfs,-115.5176399,45.52074674,Aerodome,Dixie,United States
896,10D,Winsted Muni,-94.06692548,44.94997071,Aerodome,Winsted,United States
897,7Y4,Bagley Muni,-95.36372124,47.52403944,Aerodome,Bagley,United States
898,29S,Gardiner,-110.746613,45.04994214,Aerodome,Gardiner,United States
899,8U6,Terry,-105.3131224,46.77714615,Aerodome,Terry,United States
900,N17,Vaughn Muni,-105.1918316,34.60458593,Aerodome,Vaughn,United States
901,6S6,Powers,-124.059042,42.86936628,Aerodome,Powers,United States
902,D58,Timber Lake Muni,-101.0832113,45.41499496,Aerodome,Timber Lake,United States
903,AMA,Rick Husband Amarillo Intl,-101.7059256,35.21936705,Aerodome,Amarillo,United States
904,7P5,Piso,-88.42708968,45.06542499,Aerodome,Suring,United States
905,AK1,Butte Muni,-149.0176594,61.53031704,Aerodome,Palmer,United States
906,KFP,False Pass,-163.4071299,54.84786124,Aerodome,False Pass,United States
907,CZO,Chistochina,-144.6724684,62.56233576,Aerodome,Chistochina,United States
908,TNW,Tin Creek,-153.6128128,62.53212316,Aerodome,Farewell Lake,United States
909,LKK,Kulik Lake,-155.0956339,58.96500653,Aerodome,Kulik Lake,United States
910,FAT,Fresno Yosemite Intl,-119.718846,36.7765606,Aerodome,Fresno,United States
911,0F3,Spirit Lake Muni,-95.13947612,43.38742846,Aerodome,Spirit Lake,United States
912,U60,Big Creek,-115.321792,45.13324922,Aerodome,Big Creek,United States
913,1K9,Satanta Muni,-100.98462,37.456673,Aerodome,Satanta,United States
914,MO9,Kingsley Airfield,-93.93021543,37.22981919,Aerodome,Miller,United States
915,2R0,Waynesboro Muni,-88.6351003,31.64355972,Aerodome,Waynesboro,United States
916,1N1,Sandia Arpk Estates East,-106.1645655,35.09461678,Aerodome,Edgewood,United States
917,N19,Aztec Muni,-108.028666,36.83695443,Aerodome,Aztec,United States
918,NY1,Kline Kill,-73.63706449,42.35009358,Aerodome,Ghent,United States
919,1K5,Waynoka Muni,-98.8546722,36.57130631,Aerodome,Waynoka,United States
920,T26,Flying V Ranch,-96.39878501,29.10828281,Aerodome,Louise,United States
921,74T,Hicks,-97.25462016,33.1830169,Aerodome,Ponder,United States
922,63F,Stanton Muni,-101.8224809,32.17358846,Aerodome,Stanton,United States
923,E34,Smiley Johnson Muni/Bass Fld,-100.8693698,34.91150593,Aerodome,Clarendon,United States
924,27R,Eldorado,-100.6108695,30.86222744,Aerodome,Eldorado,United States
925,E57,Denver City,-102.8451052,32.974665,Aerodome,Denver City,United States
926,5CD,Chandalar Shelf,-149.5797688,68.06544068,Aerodome,Chandalar Camp,United States
927,CKX,Chicken,-141.9513724,64.0667542,Aerodome,Chicken,United States
928,5BK,Black Rapids,-145.8609109,63.53514856,Aerodome,Black Rapids,United States
929,67A,Fort Deposit-Lowndes Co,-86.59164613,31.9723768,Aerodome,Fort Deposit,United States
930,L36,Rio Linda,-121.4454576,38.67500509,Aerodome,Rio Linda,United States
931,0N6,Albanna Aviation,-75.53397405,39.01289675,Aerodome,Felton,United States
932,8C2,Sully Muni,-92.84660721,41.5741075,Aerodome,Sully,United States
933,GFD,Pope Fld,-85.73609361,39.79032841,Aerodome,Greenfield,United States
934,SGF,Springfield-Branson National,-93.38864584,37.24567339,Aerodome,Springfield,United States
935,LTY,Liberty Co,-110.9908768,48.51072911,Aerodome,Chester,United States
936,E61,Conchas Lake,-104.2163748,35.3842211,Seaport,Conchas Dam,United States
937,7S3,Stark's Twin Oaks Arpk,-122.9421714,45.42845571,Aerodome,Hillsboro,United States
938,39R,Flyin' B,-95.4236459,29.53761626,Aerodome,Houston,United States
939,7F7,Clifton Muni/Isenhower Fld,-97.56957711,31.81713885,Aerodome,Clifton,United States
940,A27,Seldovia,-151.707683,59.43410674,Seaport,Seldovia,United States
941,Z40,Goose Bay,-149.8422926,61.39465164,Aerodome,Goose Bay,United States
942,PEC,Pelican,-136.2362938,57.95517616,Seaport,Pelican,United States
943,E60,Eloy Muni,-111.5866372,32.80672686,Aerodome,Eloy,United States
944,68J,Tallahassee Commercial,-84.37383738,30.54731128,Aerodome,Tallahassee /Havana/,United States
945,U41,Dubois Muni,-112.220679,44.16236748,Aerodome,Dubois,United States
946,78U,Snake River,-117.0510048,46.39988915,Seaport,Lewiston,United States
947,7N0,New Orleans Downtown,-90.08273895,29.95268875,Heliport,New Orleans,United States
948,2R1,Le Maire Mem,-91.66600604,29.89907479,Aerodome,Jeanerette,United States
949,9M6,Kelly-Dumas,-91.40406167,32.8476532,Aerodome,Oak Grove,United States
950,18Y,Milaca Muni,-93.63219241,45.7724728,Aerodome,Milaca,United States
951,D81,Red Lake Falls Muni,-96.25978822,47.82652343,Aerodome,Red Lake Falls,United States
952,L51,Heller Farm,-108.875054,47.72634036,Aerodome,Winifred,United States
953,4U7,West Fork Lodge,-114.217763,45.86225634,Aerodome,Conner,United States
954,13Q,Jewett Mesa,-108.6797882,34.00431093,Aerodome,Apache Creek,United States
955,E14,Ohkay Owingeh,-106.0454246,36.02612485,Aerodome,Espanola,United States
956,XNI,Andrew Othole Mem,-108.9376105,35.06068051,Aerodome,Zuni,United States
957,46N,Sky Park,-73.83596706,41.98468384,Aerodome,Red Hook,United States
958,K49,Muni,-101.8136757,36.50561725,Aerodome,Texhoma,United States
959,79N,Ridge Soaring,-77.90722825,40.88395675,Gliderport,Unionville,United States
960,D07,Faith Muni,-102.0206768,45.03517401,Aerodome,Faith,United States
961,3T8,Wildcat Canyon,-97.36256316,31.67856106,Aerodome,China Spring,United States
962,12T,Ferris Red Oak Muni,-96.7279186,32.52916958,Heliport,Ferris/Red Oak,United States
963,EYQ,Weiser Air Park,-95.63937972,29.93557636,Aerodome,Houston,United States
964,F82,Lubbock Exec Arpk,-101.8126721,33.48564814,Aerodome,Lubbock,United States
965,8W5,Apex Arpk,-122.7331525,47.65641946,Aerodome,Silverdale,United States
966,69S,Avey Fld,-118.2226131,48.99838559,Aerodome,Laurier,United States
967,S52,Methow Valley State,-120.1459003,48.42495424,Aerodome,Winthrop,United States
968,R49,Ferry Co,-118.6564859,48.71821192,Aerodome,Republic,United States
969,05K,Wilder/Natwick LLC,-154.3247272,60.19863961,Aerodome,Port Alsworth,United States
970,15Z,McCarthy,-142.9025261,61.43782185,Aerodome,Mccarthy,United States
971,CGA,Craig,-133.1478201,55.47883582,Seaport,Craig,United States
972,E55,Ocean Ridge,-123.5306524,38.80161605,Aerodome,Gualala,United States
973,L70,Agua Dulce,-118.3146567,34.50257435,Aerodome,Agua Dulce,United States
974,23Y,Murdock Muni,-95.40114422,45.22219038,Aerodome,Murdock,United States
975,7Y3,Backus Muni,-94.50722866,46.82691177,Aerodome,Backus,United States
976,2C9,Toledo Seaplane Base,-83.5533795,41.62223025,Seaport,Toledo,United States
977,AQR,Atoka Muni,-96.14806718,34.39834496,Aerodome,Atoka,United States
978,56S,Seaside Muni,-123.9076723,46.0150012,Aerodome,Seaside,United States
979,4S1,Gold Beach Muni,-124.4249308,42.41536622,Aerodome,Gold Beach,United States
980,55T,Eagles Aerodrome,-101.4110366,35.21447817,Aerodome,Conway,United States
981,56F,Fisher Co,-100.4128418,32.82431114,Aerodome,Rotan/Roby,United States
982,3W7,Grand Coulee Dam,-119.0830144,47.92206154,Aerodome,Electric City,United States
983,4P5,Franks,-90.00016164,45.8832939,Seaport,Lac Du Flambeau,United States
984,96Z,Whale Pass Seaplane Float Harbor Facility,-133.1217345,56.11631498,Seaport,Whale Pass,United States
985,2R3,Island Lake,-151.3114254,60.70443755,Seaport,Kenai,United States
986,L95,Jones Landing,-149.9393594,61.55477383,Seaport,Big Lake,United States
987,Z93,Copper Center 2,-145.2941044,61.94119235,Aerodome,Copper Center,United States
988,KPB,Point Baker,-133.6226058,56.35186408,Seaport,Point Baker,United States
989,4M5,Dermott Muni,-91.44261755,33.48795944,Aerodome,Dermott,United States
990,7M9,Salem,-91.83096118,36.3559147,Aerodome,Salem,United States
991,0Q4,Selma,-119.6569907,36.58100553,Aerodome,Selma,United States
992,U84,Donald D Coski Mem,-116.092641,44.72906578,Aerodome,Donnelly,United States
993,6I4,Boone Co,-86.44056051,40.0072712,Aerodome,Lebanon,United States
994,K83,Sabetha Muni,-95.77944033,39.90417371,Aerodome,Sabetha,United States
995,M42,Russian Flat,-110.4178402,46.72431789,Aerodome,Russian Flat,United States
996,6H8,Hazelton Muni,-100.2637432,46.48222433,Aerodome,Hazelton,United States
997,LNK,Lincoln,-96.75911931,40.85089602,Aerodome,Lincoln,United States
998,5V5,Shiprock Airstrip,-108.7009798,36.69769656,Aerodome,Shiprock,United States
999,33R,Groveton-Trinity Co,-95.16411812,31.08433881,Aerodome,Groveton,United States
1000,96C,Fox River,-88.25092991,42.75002435,Aerodome,Rochester,United States
1001,Z47,Engstrom Fld,-165.299226,64.67908908,Aerodome,Basin Creek,United States
1002,SVS,Stevens Village,-149.0543883,66.01716813,Aerodome,Stevens Village,United States
1003,7M7,Piggott Muni,-90.16624767,36.37821228,Aerodome,Piggott,United States
1004,L17,Taft-Kern Co,-119.4378528,35.14166298,Aerodome,Taft,United States
1005,Y01,Waukon Muni,-91.46953508,43.28048397,Aerodome,Waukon,United States
1006,K06,Greater Beardstown,-90.40374192,39.97338876,Aerodome,Beardstown,United States
1007,K64,Vinland Valley Aerodrome,-95.18204368,38.83613746,Aerodome,Baldwin City,United States
1008,3K7,Mark Hoard Mem,-101.350541,38.4579898,Aerodome,Leoti,United States
1009,65G,Maple Grove,-84.06246448,42.71726375,Aerodome,Fowlerville,United States
1010,4Y1,Raether,-83.85629635,42.56520262,Aerodome,Howell,United States
1011,12Y,Le Sueur Muni,-93.91585514,44.44089595,Aerodome,Le Sueur,United States
1012,WH0,Woodhawk,-109.0786235,47.77945145,Aerodome,Winifred,United States
1013,FSU,Fort Sumner Muni,-104.2169572,34.48777652,Aerodome,Fort Sumner,United States
1014,4O7,Decker Fld,-98.17845257,36.37217298,Aerodome,Meno,United States
1015,62S,Christmas Valley,-120.6647082,43.23625551,Aerodome,Christmas Valley,United States
1016,3T0,Cedar Mills,-96.81007657,33.83935202,Aerodome,Gordonville,United States
1017,8T8,San Geronimo Arpk,-98.79842452,29.51019947,Aerodome,San Antonio,United States
1018,X54,Benger Air Park,-102.6918902,34.6542394,Aerodome,Friona,United States
1019,13W,Camano Island Airfield,-122.4362095,48.25695008,Aerodome,Stanwood,United States
1020,W01,Tonasket Muni,-119.4656494,48.72487433,Aerodome,Tonasket,United States
1021,HYL,Clark Bay,-132.6235745,55.49042117,Seaport,Hollis,United States
1022,CJX,Crooked Creek,-158.1349676,61.86788914,Aerodome,Crooked Creek,United States
1023,IKO,Nikolski AS,-168.8490452,52.94155519,Aerodome,Nikolski,United States
1024,BCV,Birchwood,-149.5083293,61.41609047,Aerodome,Birchwood,United States
1025,Z43,Tamgas Harbor,-131.5569733,55.06799688,Seaport,Annette,United States
1026,KTB,Thorne Bay,-132.5366948,55.68796646,Seaport,Thorne Bay,United States
1027,3M5,Moontown,-86.46097708,34.74736767,Aerodome,Huntsville,United States
1028,O79,Sierraville Dearwater,-120.3540409,39.58167192,Aerodome,Sierraville,United States
1029,UPP,Upolu,-155.8599589,20.2651979,Aerodome,Hawi,United States
1030,2R7,Franklinton,-90.11253344,30.81945004,Aerodome,Franklinton,United States
1031,PG1,Griffin Fld,-68.9771056,44.86773142,Aerodome,Levant,United States
1032,Y04,Sugar Loaf Resort,-85.81615136,44.90634874,Aerodome,Traverse City,United States
1033,2K1,Pond Creek Muni,-97.80867417,36.66253667,Aerodome,Pond Creek,United States
1034,8D8,Lake Andes Muni,-98.54036811,43.14805624,Aerodome,Lake Andes,United States
1035,52F,Northwest Rgnl,-97.23224515,33.04985049,Aerodome,Roanoke,United States
1036,81W,Fishermans Bay,-122.9179713,48.51649476,Seaport,Lopez,United States
1037,S97,Anderson Fld,-119.7206274,48.10487399,Aerodome,Brewster,United States
1038,S95,Martin Fld,-118.4171917,46.0469451,Aerodome,College Place,United States
1039,S36,Norman Grier Fld,-122.1035512,47.33710229,Aerodome,Kent,United States
1040,MYK,May Creek,-142.6859091,61.33616392,Aerodome,May Creek,United States
1041,3T4,Tetlin,-142.5185799,63.1246972,Aerodome,Tetlin,United States
1042,A79,Chignik Lake,-158.7778517,56.25545759,Aerodome,Chignik Lake,United States
1043,1A4,Logan Fld,-86.06260455,31.10370858,Aerodome,Samson,United States
1044,E51,Bagdad,-113.1719599,34.59289965,Aerodome,Bagdad,United States
1045,2T2,Percival Springs,-88.53928353,39.01445174,Aerodome,Watson,United States
1046,I42,Paoli Muni,-86.46464956,38.58546704,Aerodome,Paoli,United States
1047,38K,Lucas,-98.52535263,39.06196174,Aerodome,Lucas,United States
1048,5F4,Homer Muni,-93.00366737,32.78851395,Aerodome,Homer,United States
1049,23S,Seeley Lake,-113.4452354,47.18195097,Aerodome,Seeley Lake,United States
1050,8U9,Canyon Ferry,-111.5772065,46.41882775,Aerodome,Townsend,United States
1051,JDN,Jordan,-106.9527006,47.32875717,Aerodome,Jordan,United States
1052,ASY,Ashley Muni,-99.35265681,46.02310351,Aerodome,Ashley,United States
1053,E26,Lea Co/Jal/,-103.1548596,32.13108368,Aerodome,Jal,United States
1054,9W8,Baublitz Commercial,-76.48635552,39.85233161,Aerodome,Brogue,United States
1055,1.00E+02,Terlingua Ranch,-103.39762,29.45150486,Aerodome,Alpine,United States
1056,1.00E+07,Buffalo,-101.8775923,35.06389479,Aerodome,Amarillo,United States
1057,61R,Newton Muni,-93.74247886,30.88406104,Aerodome,Newton,United States
1058,X43,Sunray,-101.8287912,36.02920828,Aerodome,Sunray,United States
1059,24F,Cypress River,-94.30470132,32.74431139,Aerodome,Jefferson,United States
1060,46U,Alpine,-111.0385119,43.18181193,Aerodome,Alpine,United States
1061,N55,Jaluit,169.6416553,5.906674024,Aerodome,Jabor Jaluit Atoll,Marshall Islands
1062,63A,Lloyd R Roundtree Seaplane Facility,-132.9600762,56.81132417,Seaport,Petersburg,United States
1063,D72,D&c Fire Lake Flying Club,-149.5463731,61.35252113,Seaport,Eagle River,United States
1064,4AK0,Niklason Lake,-149.2711039,61.62920171,Seaport,Wasilla,United States
1065,2A6,Holly Grove Muni,-91.16522838,34.58245078,Aerodome,Holly Grove,United States
1066,01K,Caldwell Muni,-97.58556359,37.03661757,Aerodome,Caldwell,United States
1067,5C3,Nary National-Shefland Fld,-94.79875855,47.3753971,Aerodome,Nary,United States
1068,5U7,Fort Smith Landing Strip,-107.9312335,45.32079937,Aerodome,Fort Smith,United States
1069,Y71,Elgin Muni,-101.8449131,46.38276168,Aerodome,Elgin,United States
1070,0F7,Fountainhead Lodge Arpk,-95.60028517,35.38867294,Aerodome,Eufaula,United States
1071,JSY,Joseph State,-117.2538496,45.359556,Aerodome,Joseph,United States
1072,7K7,Graham Fld,-96.4847861,42.53950741,Aerodome,North Sioux City,United States
1073,M29,Hassell Fld,-87.96753365,35.38508191,Aerodome,Clifton,United States
1074,M93,Houston Co,-87.91670092,36.31672848,Aerodome,Mc Kinnon,United States
1075,7R9,Bailes,-95.40109032,29.16506063,Aerodome,Angleton,United States
1076,F83,Abernathy Muni,-101.7629566,33.84591931,Aerodome,Abernathy,United States
1077,PGM,Port Graham,-151.830344,59.34847645,Aerodome,Port Graham,United States
1078,3Z9,Haines,-135.4407392,59.23495515,Seaport,Haines,United States
1079,4A3,Lake Lucille,-149.4756344,61.57502946,Seaport,Wasilla,United States
1080,BNG,Banning Muni,-116.8509842,33.92256048,Aerodome,Banning,United States
1081,O24,Lee Vining,-119.1058239,37.95774384,Aerodome,Lee Vining,United States
1082,6K7,Grundy Center Muni,-92.84354036,42.35082401,Aerodome,Grundy Center,United States
1083,7I4,Orleans,-86.44304928,38.65839428,Aerodome,Orleans,United States
1084,K50,Cook Airfield,-97.1745265,37.56634294,Aerodome,Rose Hill,United States
1085,69K,Wamego Muni,-96.25894817,39.19786523,Aerodome,Wamego,United States
1086,47Y,Pelican Rapids Muni-Lyon's Fld,-96.10415325,46.64133718,Aerodome,Pelican Rapids,United States
1087,01M,Tishomingo Co,-88.20121566,34.49182405,Aerodome,Belmont,United States
1088,1M2,Belzoni Muni,-90.51529061,33.14518663,Aerodome,Belzoni,United States
1089,2L1,Larimore Muni,-97.64098167,47.90672194,Aerodome,Larimore,United States
1090,O44,Mc Caslin,-97.33642559,35.09229892,Aerodome,Lexington,United States
1091,1O0,Lake Woahink,-124.1147366,43.90417189,Seaport,Florence,United States
1092,OR9,Lord Flat,-116.6183718,45.6664672,Aerodome,Imnaha,United States
1093,6A6,Kimball Muni,-98.97815748,43.75833908,Aerodome,Kimball,United States
1094,T71,Cuero Muni,-97.26694162,29.08359305,Aerodome,Cuero,United States
1095,W37,American Lake,-122.5609737,47.14149223,Seaport,Lakewood,United States
1096,79C,Brennand,-88.55956099,44.15999234,Aerodome,Neenah,United States
1097,HAD,Harford Fld,-106.3094808,42.92441673,Aerodome,Casper,United States
1098,KEB,Nanwalek,-151.9251776,59.35214977,Aerodome,Nanwalek,United States
1099,L20,Coal Creek,-143.1341458,65.31152338,Aerodome,Yukon Charley Rivers,United States
1100,55M,Star City Muni,-91.86111741,33.92642284,Aerodome,Star City,United States
1101,F62,Hayfork,-123.1796526,40.5470051,Aerodome,Hayfork,United States
1102,6Z6,NASh Fld Indianola,-93.56749766,41.30386019,Aerodome,Indianola,United States
1103,SUX,Sioux Gateway/Col Bud Day Fld,-96.38436939,42.40261851,Aerodome,Sioux City,United States
1104,U87,Smiley Creek,-114.7960684,43.912145,Aerodome,Smiley Creek,United States
1105,5I2,Flora Muni,-86.54833836,40.53976601,Aerodome,Flora,United States
1106,8I1,Robinson,-85.1982917,38.69451379,Aerodome,Vevay,United States
1107,2K6,Elk Co,-96.27111884,37.38092326,Aerodome,Moline,United States
1108,1QK,Gove Co,-100.2338972,39.03859663,Aerodome,Quinter,United States
1109,Y96,Leo E Goetz Co,-84.22501953,45.3708539,Aerodome,Onaway,United States
1110,APN,Alpena Co Rgnl,-83.5603104,45.07809195,Aerodome,Alpena,United States
1111,K26,Carrollton Mem,-93.50656272,39.31217375,Aerodome,Carrollton,United States
1112,D61,Towner Muni,-100.3956226,48.35920257,Aerodome,Towner,United States
1113,D49,Columbus Muni,-102.7923013,48.89942022,Aerodome,Columbus,United States
1114,6F1,Talihina Muni,-95.07379304,34.70777757,Aerodome,Talihina,United States
1115,5TX,Rock Creek Ranch,-98.01143729,32.96846072,Aerodome,Whitt,United States
1116,F85,Cochran Co,-102.7338274,33.72926952,Aerodome,Morton,United States
1117,T32,Sudden Stop,-96.90723232,33.57150366,Aerodome,Collinsville,United States
1118,GOP,Gatesville Muni,-97.79697548,31.42128099,Aerodome,Gatesville,United States
1119,T05,Charles R Johnson,-97.4392574,26.56016003,Aerodome,Port Mansfield,United States
1120,3.00E+00,Miami-Roberts Co,-100.6032009,35.7139383,Aerodome,Miami,United States
1121,TX0,Shank N Bank,-96.46819613,28.74006328,Aerodome,La Ward,United States
1122,KAE,Kake,-133.9456345,56.97300069,Seaport,Kake,United States
1123,EWU,Newtok,-164.6412718,60.9391382,Aerodome,Newtok,United States
1124,MTM,Metlakatla,-131.5780861,55.13104993,Seaport,Metlakatla,United States
1125,L93,Robe Lake,-146.1440313,61.08712448,Seaport,Valdez,United States
1126,14J,Carl Folsom,-86.09034068,31.41004753,Aerodome,Elba,United States
1127,L52,Oceano Co,-120.6223738,35.10147705,Aerodome,Oceano,United States
1128,O86,Trinity Center,-122.6937359,40.98275517,Aerodome,Trinity Center,United States
1129,C00,Mercer Co,-90.7370902,41.24865257,Aerodome,Aledo,United States
1130,22M,Pontotoc Co,-89.03803333,34.27556192,Aerodome,Pontotoc,United States
1131,5U5,Fairfield,-111.9812074,47.63384004,Aerodome,Fairfield,United States
1132,N08,Flanagan Fld,-77.56055783,35.55667373,Aerodome,Farmville,United States
1133,9G9,Gackle Muni,-99.16447353,46.62157166,Aerodome,Gackle,United States
1134,18T,Tatum,-103.2784952,33.26081108,Aerodome,Tatum,United States
1135,61J,Portland Downtown,-122.6709434,45.52528324,Heliport,Portland,United States
1136,26U,Mc Dermitt State,-117.7271519,42.01031124,Aerodome,Mc Dermitt,United States
1137,F97,Seagraves,-102.5409075,32.95455884,Aerodome,Seagraves,United States
1138,5K6,Westosha,-88.20517265,42.51414682,Aerodome,Wilmot,United States
1139,3N1,Maloelap,171.2333219,8.708339958,Aerodome,Taora Is  Maloelap Atoll,Marshall Islands
1140,Z59,Bethel,-161.7431509,60.78202505,Seaport,Bethel,United States
1141,99Z,Finger Lake,-149.263565,61.60923783,Seaport,Palmer,United States
1142,5M8,Gurdon Lowe Fld,-93.16814554,33.92378389,Aerodome,Gurdon,United States
1143,11V,Easton/Valley View/,-104.6094045,40.32736347,Aerodome,Greeley,United States
1144,PAK,Port Allen,-159.603181,21.89694785,Aerodome,Hanapepe,United States
1145,12I,Brookville Reservoir,-85.00056032,39.53331313,Seaport,Brookville,United States
1146,39K,Pomona Lake,-95.69017436,38.69172907,Aerodome,Lyndon,United States
1147,60G,Skyway Estates,-84.65148548,42.58381647,Aerodome,Eaton Rapids,United States
1148,PYN,Piedmont Muni,-90.71353399,37.12614573,Aerodome,Piedmont,United States
1149,6U6,Hogeland,-108.6609569,48.86014604,Aerodome,Hogeland,United States
1150,5U8,Geraldine,-110.2661515,47.59653465,Aerodome,Geraldine,United States
1151,00U,Big Horn Co,-107.6604561,45.74439583,Aerodome,Hardin,United States
1152,8S0,Starr-Browning Airstrip,-113.115319,48.60100667,Aerodome,Browning,United States
1153,97Y,Genoa Muni,-97.70867129,41.40418716,Aerodome,Genoa,United States
1154,S03,Ashland Muni-Sumner Parker Fld,-122.6606528,42.19028303,Aerodome,Ashland,United States
1155,S45,Siletz Bay State,-124.0285701,44.87678307,Aerodome,Gleneden Beach,United States
1156,07R,Bishop Muni,-97.7525353,27.61017135,Aerodome,Bishop,United States
1157,78R,San Augustine Co,-94.17007345,31.54043616,Aerodome,San Augustine,United States
1158,C72,Cross Winds,-117.5288669,47.9810006,Aerodome,Clayton,United States
1159,S70,Othello Muni,-119.0801253,46.79422814,Aerodome,Othello,United States
1160,RMP,Rampart,-150.14086,65.50790131,Aerodome,Rampart,United States
1161,5Z9,Lake Brooks,-155.7774087,58.55484395,Seaport,Katmai National Park,United States
1162,4M2,Booneville Muni,-93.86339647,35.14953265,Aerodome,Booneville,United States
1163,U97,Howe,-113.0466819,43.83907626,Aerodome,Howe,United States
1164,DTG,Dwight,-88.43865119,41.13262949,Aerodome,Dwight,United States
1165,Y98,Grand Marais,-85.92008941,46.62037344,Aerodome,Grand Marais,United States
1166,5Y7,Hanley Fld,-86.62099623,46.3541253,Aerodome,Munising,United States
1167,D64,Westhope Muni,-101.0337328,48.91308427,Aerodome,Westhope,United States
1168,PDX,Portland Intl,-122.5968839,45.58871434,Aerodome,Portland,United States
1169,1.00E+04,Palo Duro,-101.8392311,35.14372814,Aerodome,Amarillo,United States
1170,F06,Marian Arpk,-100.1951995,34.84487159,Aerodome,Wellington,United States
1171,BTF,Skypark,-111.9271729,40.86939521,Aerodome,Bountiful,United States
1172,KEK,Ekwok,-157.4711604,59.3568339,Aerodome,Ekwok,United States
1173,AK8,Christiansen Lake,-150.0693738,62.31341543,Seaport,Talkeetna,United States
1174,AQC,Klawock,-133.1017118,55.55466193,Seaport,Klawock,United States
1175,L37,Grand Canyon Caverns,-113.2475142,35.52724004,Aerodome,Peach Springs,United States
1176,L90,Ocotillo,-116.1315951,33.14778264,Aerodome,Ocotillo Wells,United States
1177,BDU,Boulder Muni,-105.2260998,40.03937172,Aerodome,Boulder,United States
1178,U62,Mackay,-113.6023792,43.91001455,Aerodome,Mackay,United States
1179,DYT,Sky Harbor,-92.04344654,46.72186916,Aerodome,Duluth,United States
1180,3VS,Roy Otten Mem Airfield,-92.87528469,38.42828474,Aerodome,Versailles,United States
1181,4R1,I H Bass Jr Mem,-89.48256106,31.015339,Aerodome,Lumberton,United States
1182,49S,Babb,-113.4292913,48.84822888,Aerodome,Babb,United States
1183,S42,Springer Muni,-104.6178611,36.33152817,Aerodome,Springer,United States
1184,O38,Gundys,-95.7836039,36.2667692,Aerodome,Owasso,United States
1185,H66,Nowata Muni,-95.62526333,36.72092874,Aerodome,Nowata,United States
1186,H97,Pawnee Muni,-96.81032028,36.38339195,Aerodome,Pawnee,United States
1187,P17,Greater Breezewood Rgnl,-78.29773608,39.87427599,Aerodome,Breezewood,United States
1188,8F6,Murdo Muni,-100.7128152,43.85214618,Aerodome,Murdo,United States
1189,T39,Archer City Muni,-98.61867609,33.58233192,Aerodome,Archer City,United States
1190,LBB,Lubbock Preston Smith Intl,-101.8205644,33.66367233,Aerodome,Lubbock,United States
1191,W10,Whidbey Air Park,-122.4377425,48.01751788,Aerodome,Langley,United States
1192,D69,Rogersburg,-116.9648858,46.07413941,Aerodome,Anatone,United States
1193,AK7,Gold King Creek,-147.9286365,64.19805733,Aerodome,Fairbanks,United States
1194,FCY,Hutfly-Fcy,-90.77497218,34.94200447,Aerodome,Forrest City,United States
1195,H47,Hyampom,-123.4685137,40.62561619,Aerodome,Hyampom,United States
1196,L94,Mountain Valley,-118.4231515,35.10108274,Aerodome,Tehachapi,United States
1197,L88,New Cuyama,-119.6855958,34.93994931,Aerodome,New Cuyama,United States
1198,38N,Smyrna,-75.58380742,39.30367459,Aerodome,Smyrna,United States
1199,8C6,Traer Muni,-92.45664606,42.20084096,Aerodome,Traer,United States
1200,Y48,Belmond Muni,-93.59466118,42.85275404,Aerodome,Belmond,United States
1201,I58,Crooked Lake,-85.04139385,41.67242462,Seaport,Angola,United States
1202,6Y4,Van Effen Fld,-87.25821167,46.05206133,Aerodome,Rock,United States
1203,BFW,Silver Bay Muni,-91.41559088,47.24903623,Aerodome,Silver Bay,United States
1204,RED,Red Lodge,-109.2673897,45.18745146,Aerodome,Red Lodge,United States
1205,D91,Spencerport Arpk,-77.81834451,43.16951413,Aerodome,Spencerport,United States
1206,3O3,Purcell Muni - Steven E Shephard Fld,-97.38264615,34.98335584,Aerodome,Purcell,United States
1207,T54,Lane Arpk,-95.77523515,29.52441069,Aerodome,Rosenberg,United States
1208,SKF,Kelly Fld,-98.58112446,29.38423835,Aerodome,San Antonio,United States
1209,80T,Quincy Muni,-119.8398477,47.21161697,Aerodome,Quincy,United States
1210,N20,Ine,171.4833217,7.016673628,Aerodome,Arno Atoll,Marshall Islands
1211,ELV,Elfin Cove,-136.3474134,58.19518809,Seaport,Elfin Cove,United States
1212,CPM,Compton/Woodley,-118.2438177,33.88992151,Aerodome,Compton,United States
1213,99V,Crawford,-107.64368,38.70415971,Aerodome,Crawford,United States
1214,C27,Manchester Muni,-91.49788055,42.49050356,Aerodome,Manchester,United States
1215,06C,Schaumburg Rgnl,-88.10124868,41.98934868,Aerodome,Chicago/Schaumburg,United States
1216,K68,Garnett Muni,-95.21523808,38.27736514,Aerodome,Garnett,United States
1217,9K7,Ellsworth Muni,-98.23036947,38.75053449,Aerodome,Ellsworth,United States
1218,L32,Jonesville,-91.83429822,31.62026371,Aerodome,Jonesville,United States
1219,76G,Marine City,-82.59625848,42.72138743,Aerodome,Marine City,United States
1220,52Y,Remer Muni,-93.91413186,47.06801741,Aerodome,Remer,United States
1221,06M,Eupora,-89.31311669,33.53483953,Aerodome,Eupora,United States
1222,64V,Wallace Muni,-101.164054,40.83223128,Aerodome,Wallace,United States
1223,E05,Hatch Muni,-107.1954189,32.66029724,Aerodome,Hatch,United States
1224,1V0,Navajo Lake,-107.6526243,36.80829611,Aerodome,Navajo Dam,United States
1225,0L4,Lida Junction,-117.188429,37.49189418,Aerodome,Goldfield,United States
1226,D79,Dart,-79.48171663,42.26812167,Aerodome,Mayville,United States
1227,6D7,Deshler Muni Landing Strip,-83.87087401,41.21545238,Aerodome,Deshler,United States
1228,F92,Kingfisher,-97.95294553,35.87667847,Aerodome,Kingfisher,United States
1229,64S,Prospect State,-122.4889862,42.74258864,Aerodome,Prospect,United States
1230,W73,Mid Atlantic Soaring Center,-77.35137856,39.75704794,Aerodome,Fairfield,United States
1231,N48,Horsham Valley Airways Inc,-75.17823096,40.20206061,Heliport,Horsham,United States
1232,0M2,Reelfoot Lake,-89.34631134,36.47534011,Aerodome,Tiptonville,United States
1233,2H5,Houston Fort Bend,-95.89839602,29.49917179,Aerodome,Houston,United States
1234,T57,Garland/Dfw Heloplex,-96.683615,32.88763076,Heliport,Garland,United States
1235,T50,Menard Co,-99.80923594,30.93247749,Aerodome,Menard,United States
1236,T90,Chambers Co-Winnie Stowell,-94.43098454,29.8188608,Aerodome,Winnie/Stowell,United States
1237,T56,Eagle's Nest Estates,-96.92678435,32.5128179,Aerodome,Midlothian,United States
1238,92C,Carter,-88.21452567,44.64102494,Aerodome,Pulaski,United States
1239,N36,Wotje,170.2333221,9.466673205,Aerodome,Wotje Atoll,Marshall Islands
1240,A63,Twin Hills,-160.2750628,59.07452516,Aerodome,Twin Hills,United States
1241,C05,Chenega Bay,-147.994757,60.07856313,Aerodome,Chenega,United States
1242,5M4,Fordyce Muni,-92.36553532,33.84579836,Aerodome,Fordyce,United States
1243,P23,Seligman,-112.8865086,35.33508032,Aerodome,Seligman,United States
1244,0O4,Corning Muni,-122.1711246,39.94611625,Aerodome,Corning,United States
1245,1O6,Dunsmuir Muni-Mott,-122.2720512,41.26292467,Aerodome,Dunsmuir,United States
1246,7V9,City of Las Animas - Bent Co,-103.2384817,38.05403407,Aerodome,Las Animas,United States
1247,1Y5,New Hampton Muni,-92.34323975,43.0872036,Aerodome,New Hampton,United States
1248,I08,Cabin Creek Usfs,-114.9290028,45.14353065,Aerodome,Big Creek Ranger Station,United States
1249,1I9,Delphi Muni,-86.68148868,40.54300767,Aerodome,Delphi,United States
1250,06I,Patoka Reservoir Landing Area,-86.69110739,38.43339589,Seaport,French Lick,United States
1251,80D,Clare Co,-84.81314099,44.05228857,Aerodome,Harrison,United States
1252,68Y,Wells Muni,-93.78356773,43.73329555,Aerodome,Wells,United States
